[
	{
	"Name": "CABINET TMS 10",
	"Adresse": "2 Rue Gustave Eiffel, 10430 Rosières-prés-Troyes, France",
	"Phone": "09 78 81 00 38",
	"Latitude": 48.270438,
	"Longitude": 4.077274,
	"Type": "CABINET",
	"Statut": "Ouvert"
	},
	{
	"Name": "CABINET TMS 11",
	"Adresse": "150 Rue Antoine Becquerel, 11100 Narbonne, France",
	"Phone": "09 78 81 00 38",
	"Latitude": 43.167855,
	"Longitude": 3.011623,
	"Type": "CABINET",
	"Statut": "Ouvert"
	},
	{
	"Name": "CABINET TMS 14",
	"Adresse": "7-9 Rue Saint-Laurent, 14000 Caen, France",
	"Phone": "09 78 81 00 38",
	"Latitude": 49.183578,
	"Longitude": -0.368305,
	"Type": "CABINET",
	"Statut": "Ouvert"
	},
	{
	"Name": "CABINET TMS 18",
	"Adresse": "3 Rue Charles Durand, 18000 Bourges, France",
	"Phone": "09 78 81 00 38",
	"Latitude": 47.070624,
	"Longitude": 2.391262,
	"Type": "CABINET",
	"Statut": "Ouvert"
	},
	{
	"Name": "CABINET TMS 21",
	"Adresse": "14 rue Maxime Guillot, 21300 Chenôve, France",
	"Phone": "09 78 81 00 38",
	"Latitude": 47.291771,
	"Longitude": 5.013444,
	"Type": "CABINET",
	"Statut": "Ouverture en cours"
	},
	{
	"Name": "CABINET TMS 26",
	"Adresse": "84 Bis Avenue Saint Lazare, 26200 Montélimar, France",
	"Phone": "09 78 81 00 38",
	"Latitude": 44.551815,
	"Longitude": 4.757041,
	"Type": "CABINET",
	"Statut": "Ouvert"
	},
	{
	"Name": "CABINET TMS 28",
	"Adresse": "5 Rue Mathurin Régnier, 28000 Chartres, France",
	"Phone": "09 78 81 00 38",
	"Latitude": 48.441113,
	"Longitude": 1.482705,
	"Type": "CABINET",
	"Statut": "Ouvert"
	},
	{
	"Name": "CABINET TMS 31",
	"Adresse": "Bât 3 Helios, 116 Rte d'Espagne, 31100 Toulouse, France",
	"Phone": "09 78 81 00 38",
	"Latitude": 43.567156,
	"Longitude": 1.424367,
	"Type": "CABINET",
	"Statut": "Ouvert"
	},
	{
	"Name": "CABINET TMS 41",
	"Adresse": "Centre Administratif, 34 Av. du Maréchal Maunoury, 41000 Blois, France",
	"Phone": "09 78 81 00 38",
	"Latitude": 47.593641,
	"Longitude": 1.326261,
	"Type": "CABINET",
	"Statut": "Ouvert"
	},
	{
	"Name": "CABINET TMS 54",
	"Adresse": "6 All. de Longchamp, 54600 Villers-lès-Nancy, France",
	"Phone": "09 78 81 00 38",
	"Latitude": 48.673801,
	"Longitude": 6.134017,
	"Type": "CABINET",
	"Statut": "Ouvert"
	},
	{
	"Name": "CABINET TMS 55",
	"Adresse": "61 Voie Sacrée, Souilly, France",
	"Phone": "09 78 81 00 38",
	"Latitude": 49.027962,
	"Longitude": 5.286337,
	"Type": "CABINET",
	"Statut": "Ouvert"
	},
	{
	"Name": "CABINET TMS 59",
	"Adresse": "1015 Avenue de la République, 59700 Marcq-en-Barœul, France",
	"Phone": "09 78 81 00 38",
	"Latitude": 50.662283,
	"Longitude": 3.084196,
	"Type": "CABINET",
	"Statut": "Ouvert"
	},
	{
	"Name": "CABINET TMS 72",
	"Adresse": "41 Av. Frédéric Auguste Bartholdi, 72000 Le Mans",
	"Phone": "09 78 81 00 38",
	"Latitude": 48.016377,
	"Longitude": 0.160167,
	"Type": "CABINET",
	"Statut": "Ouvert"
	}
]