[{"data":[{"Name":"EHPAD Korian Villa Spinale","Address":"","Phone":"","ATT":"Non assigné","TMS":"Inconnu","Statut":"En sourcing","Latitude":null,"Longitude":null,"Type":"Salle"},{"Name":"Mairie Neuvy-Sautour","Address":"9 Rue Gabriel Guillot, 89570 Neuvy-Sautour, France","Phone":"0386563344","ATT":"Non assigné","TMS":"Inconnu","Statut":"En sourcing","Latitude":"48.0410398","Longitude":"3.7920913","Type":"Salle collectivité"},{"Name":"Association Ville et Services Nancy","Address":"","Phone":"0383284605","ATT":"Vera Bernard","TMS":"TMS 54","Statut":"En sourcing","Latitude":null,"Longitude":null,"Type":"Salle"},{"Name":"Cabinet IDEL ROUILLON-LEBEGUE","Address":"8 Chemin d'Onjon, 10150 Creney-près-Troyes, France","Phone":"0325401264","ATT":"Non assigné","TMS":"Inconnu","Statut":"En sourcing","Latitude":"48.3322838","Longitude":"4.1300115","Type":"Cabinet Infirmier"},{"Name":"cpts Sevremoine","Address":"","Phone":"","ATT":"Non assigné","TMS":"Inconnu","Statut":"En sourcing","Latitude":null,"Longitude":null,"Type":"Salle"},{"Name":"MSP Lillebonne","Address":"14 Rue de la République, 76170 Lillebonne, France","Phone":"0611980483","ATT":"Pichard Jean-Baptiste","TMS":"TMS 14","Statut":"En sourcing","Latitude":"49.517238","Longitude":"0.53536","Type":"CDS/MSP/CM"},{"Name":"Relais 52 - projet CPTS St Dizier Der et Blaise","Address":"","Phone":"0671762190","ATT":"Non assigné","TMS":"Inconnu","Statut":"En sourcing","Latitude":null,"Longitude":null,"Type":"Salle"},{"Name":"Saint Pierre en Auge - CALN","Address":"Saint-Pierre-en-Auge, France","Phone":"","ATT":"Pichard Jean-Baptiste","TMS":"TMS 14","Statut":"En sourcing","Latitude":"49.02021999999999","Longitude":"-0.0316086","Type":"Salle"},{"Name":"EHPAD SSIAD Le Lien","Address":"4 Rue du Champ de Mars, 52800 Nogent","Phone":"0325317925","ATT":"Aurelie HUGOT-JEANNARD","TMS":"TMS 10","Statut":"En sourcing","Latitude":"48.0263138","Longitude":"5.3484392","Type":"ESMS"},{"Name":"EHPAD les Feuillantines - Groupe SOS Seniors","Address":"5 rue du Soufllet 58470 MAGNY COURS","Phone":"0386212212","ATT":"Aurelie HUGOT-JEANNARD","TMS":"TMS 10","Statut":"En sourcing","Latitude":"46.8817753","Longitude":"3.149039","Type":"ESMS"},{"Name":"MSP de la Pointe de Saire","Address":"19 Rue Sainte-Marie, 50630 Quettehou, France","Phone":"","ATT":"Pichard Jean-Baptiste","TMS":"TMS 14","Statut":"En sourcing","Latitude":"49.5911538","Longitude":"-1.3017962","Type":"CDS/MSP/CM"},{"Name":"009-La Couture Boussey-Rives d'or","Address":"37 Rue de Serez, 27750 La Couture-Boussey, France","Phone":"0232261026","ATT":"Pichard Jean-Baptiste","TMS":"TMS 14","Statut":"En sourcing","Latitude":"48.900588","Longitude":"1.3959029","Type":"ESMS"},{"Name":"Pharmacie du Champenois,  de Fère-Champenoise","Address":"78 Rue du Gén Weygand, 51230 Fère-Champenoise","Phone":"0326424037","ATT":"Aurelie HUGOT-JEANNARD","TMS":"TMS 10","Statut":"En sourcing","Latitude":"48.75574899999999","Longitude":"3.989856199999999","Type":"Pharmacie"},{"Name":"019-Caux-Ste Clotilde","Address":"34720 Caux, France","Phone":"0467984020","ATT":"Alexandra Malartre","TMS":"TMS ESMS (cabinet virtuel)","Statut":"En sourcing","Latitude":"43.5015905","Longitude":"3.3691241","Type":"ESMS"},{"Name":"029-Caen-Rives St Nicolas","Address":"92 Rue Saint-Martin, Caen, France","Phone":"","ATT":"Pichard Jean-Baptiste","TMS":"TMS 14","Statut":"En sourcing","Latitude":"49.1827137","Longitude":"-0.3731771","Type":"ESMS"},{"Name":"031-Alencon-Sénatorerie","Address":"","Phone":"","ATT":"Pichard Jean-Baptiste","TMS":"TMS 14","Statut":"En sourcing","Latitude":null,"Longitude":null,"Type":"ESMS"},{"Name":"038-Troyes-Europe","Address":"15 Avenue Maréchal de Lattre de Tassigny, Troyes, France","Phone":"0325803080","ATT":"Aurelie HUGOT-JEANNARD","TMS":"TMS 10","Statut":"En sourcing","Latitude":"48.3044367","Longitude":"4.0959353","Type":"ESMS"},{"Name":"043-Reims-St André","Address":"","Phone":"","ATT":"Aurelie HUGOT-JEANNARD","TMS":"TMS 10","Statut":"En sourcing","Latitude":null,"Longitude":null,"Type":"ESMS"},{"Name":"048-Villers Allerand-La montagne de Reims","Address":"","Phone":"","ATT":"Aurelie HUGOT-JEANNARD","TMS":"TMS 10","Statut":"En sourcing","Latitude":null,"Longitude":null,"Type":"ESMS"},{"Name":"060-EHPAD EMEIS LES MARAICHERS","Address":"66 Rue DES MARAICHERS 72100 LE MANS","Phone":"","ATT":"Mélanie Chevé","TMS":"TMS 72","Statut":"En sourcing","Latitude":"47.9896066","Longitude":"0.1956983","Type":"ESMS"},{"Name":"083-Toulouse-Borderouge","Address":"89 Chemin de Lanusse, 31200 Toulouse, France","Phone":"0534304444","ATT":"Blandine CHOPIN","TMS":"TMS 31","Statut":"En sourcing","Latitude":"43.6341058","Longitude":"1.4550945","Type":"ESMS"},{"Name":"089-Caen-Beaulieu","Address":"53 Bd Georges Pompidou, 14000 Caen, France","Phone":"","ATT":"Pichard Jean-Baptiste","TMS":"TMS 14","Statut":"En sourcing","Latitude":"49.1822605","Longitude":"-0.4049002","Type":"ESMS"},{"Name":"097-Granville-Emeraude","Address":"","Phone":"","ATT":"Pichard Jean-Baptiste","TMS":"TMS 14","Statut":"En sourcing","Latitude":null,"Longitude":null,"Type":"ESMS"},{"Name":"140-EHPAD EMEIS LES SABLONS","Address":"43 Rue DES SABLONS 72100 LE MANS","Phone":"","ATT":"Mélanie Chevé","TMS":"TMS 72","Statut":"En sourcing","Latitude":"47.9876383","Longitude":"0.2105444","Type":"ESMS"},{"Name":"146-Nancy-Cygnes","Address":"","Phone":"","ATT":"Vera Bernard","TMS":"TMS 54","Statut":"En sourcing","Latitude":null,"Longitude":null,"Type":"ESMS"},{"Name":"163-Lavau-La Puisaye","Address":"All. Jacques Tison, 89170 Lavau ","Phone":"0386742020","ATT":"Aurelie HUGOT-JEANNARD","TMS":"TMS 10","Statut":"En sourcing","Latitude":"47.598377","Longitude":"2.983361","Type":"ESMS"},{"Name":"166-Carcassonne-Carmableu","Address":"27 Rue Barbacane, 11000 Carcassonne, France","Phone":"","ATT":"Blandine CHOPIN","TMS":"TMS 11","Statut":"En sourcing","Latitude":"43.2058555","Longitude":"2.3601616","Type":"ESMS"},{"Name":"169-Charleville Mezieres-Patrice Groff","Address":"160 Rue de Monthermé, 08000 Charleville-Mézières, France","Phone":"0324585000","ATT":"Aurelie HUGOT-JEANNARD","TMS":"TMS 10","Statut":"En sourcing","Latitude":"49.793692","Longitude":"4.713490999999999","Type":"ESMS"},{"Name":"174-Chartres-Jardins de Chartres","Address":"1 Pl. Drouaise, 28000 Chartres, France","Phone":"0237180300","ATT":"Mélanie Chevé","TMS":"TMS 28","Statut":"En sourcing","Latitude":"48.4527641","Longitude":"1.4877045","Type":"ESMS"},{"Name":"179-Albi-Jardins de Jouvence","Address":"","Phone":"","ATT":"Blandine CHOPIN","TMS":"TMS 31","Statut":"En sourcing","Latitude":null,"Longitude":null,"Type":"ESMS"},{"Name":"197-Lironde","Address":"","Phone":"","ATT":"Alexandra Malartre","TMS":"TMS ESMS (cabinet virtuel)","Statut":"En sourcing","Latitude":null,"Longitude":null,"Type":"Clinique psy"},{"Name":"242-la Leze","Address":"","Phone":"","ATT":"Blandine CHOPIN","TMS":"TMS 31","Statut":"En sourcing","Latitude":null,"Longitude":null,"Type":"Clinique SSR"},{"Name":"244-Melezet","Address":"","Phone":"","ATT":"Alexandra Malartre","TMS":"TMS ESMS (cabinet virtuel)","Statut":"En sourcing","Latitude":null,"Longitude":null,"Type":"Clinique SSR"},{"Name":"248-Cabirol","Address":"","Phone":"","ATT":"Blandine CHOPIN","TMS":"TMS 31","Statut":"En sourcing","Latitude":null,"Longitude":null,"Type":"Clinique SSR"},{"Name":"266-Grand Est","Address":"","Phone":"","ATT":"Aurelie HUGOT-JEANNARD","TMS":"TMS 10","Statut":"En sourcing","Latitude":null,"Longitude":null,"Type":"Clinique psy"},{"Name":"285-Nimes-Camargue","Address":"25 Allée Djebaili Salah, 30900 Nîmes, France","Phone":"0466055210","ATT":"Alexandra Malartre","TMS":"TMS ESMS (cabinet virtuel)","Statut":"En sourcing","Latitude":"43.8183526","Longitude":"4.3566825","Type":"ESMS"},{"Name":"290-Albi-Côteaux d'Escudié","Address":"","Phone":"","ATT":"Blandine CHOPIN","TMS":"TMS 31","Statut":"En sourcing","Latitude":null,"Longitude":null,"Type":"ESMS"},{"Name":"291-Espira de l'Agly-Moulin","Address":"","Phone":"","ATT":"Alexandra Malartre","TMS":"TMS ESMS (cabinet virtuel)","Statut":"En sourcing","Latitude":null,"Longitude":null,"Type":"ESMS"},{"Name":"328-Vouziers-Demoiselle","Address":"Av. Charles de Gaulle, 08400 Vouziers, France","Phone":"0324713660","ATT":"Aurelie HUGOT-JEANNARD","TMS":"TMS 10","Statut":"En sourcing","Latitude":"49.4103177","Longitude":"4.7003116","Type":"ESMS"},{"Name":"333-Treigny-Cèdre","Address":"Rue des Écoles, 89520 Treigny-Perreuse-Sainte-Colombe, France","Phone":"0386746098","ATT":"Aurelie HUGOT-JEANNARD","TMS":"TMS 10","Statut":"En sourcing","Latitude":"47.552491","Longitude":"3.183434","Type":"ESMS"},{"Name":"342-Roussillon","Address":"","Phone":"","ATT":"Alexandra Malartre","TMS":"TMS ESMS (cabinet virtuel)","Statut":"En sourcing","Latitude":null,"Longitude":null,"Type":"Clinique psy"},{"Name":"344-Marigny","Address":"","Phone":"","ATT":"Blandine CHOPIN","TMS":"TMS 31","Statut":"En sourcing","Latitude":null,"Longitude":null,"Type":"Clinique psy"},{"Name":"353-Cormontreuil-Sacres","Address":"","Phone":"","ATT":"Aurelie HUGOT-JEANNARD","TMS":"TMS 10","Statut":"En sourcing","Latitude":null,"Longitude":null,"Type":"Clinique psy"},{"Name":"354-Terre de France","Address":"","Phone":"","ATT":"Aurelie HUGOT-JEANNARD","TMS":"TMS 10","Statut":"En sourcing","Latitude":null,"Longitude":null,"Type":"Clinique SSR"},{"Name":"378-Villeneuve de Rivière-Athéna","Address":"2 La Chapelle, Villeneuve-de-Rivière, France","Phone":"0561956434","ATT":"Blandine CHOPIN","TMS":"TMS 31","Statut":"En sourcing","Latitude":"43.1171033","Longitude":"0.6765458","Type":"ESMS"},{"Name":"398-Soleil Cedran","Address":"","Phone":"","ATT":"Alexandra Malartre","TMS":"TMS ESMS (cabinet virtuel)","Statut":"En sourcing","Latitude":null,"Longitude":null,"Type":"Clinique SSR"},{"Name":"401-Pointe","Address":"76 Rue Waldeck Rousseau 08500 Revin","Phone":"0324428100","ATT":"Aurelie HUGOT-JEANNARD","TMS":"TMS 10","Statut":"En sourcing","Latitude":"49.9407763","Longitude":"4.634636299999999","Type":"Clinique SSR"},{"Name":"403-Petit Pien","Address":"Lieu dit Le, Petit Pien, 89470 Monéteau","Phone":"0386181500","ATT":"Aurelie HUGOT-JEANNARD","TMS":"TMS 10","Statut":"En sourcing","Latitude":"47.86299","Longitude":"3.5862681","Type":"Clinique SSR"},{"Name":"409-Flourens-Lac","Address":"6 Place de l'Église, Flourens, France","Phone":"","ATT":"Blandine CHOPIN","TMS":"TMS 31","Statut":"En sourcing","Latitude":"43.5963758","Longitude":"1.5611221","Type":"ESMS"},{"Name":"411-Maison Blanche","Address":"","Phone":"","ATT":"Mélanie Chevé","TMS":"TMS 28","Statut":"En sourcing","Latitude":null,"Longitude":null,"Type":"Clinique SSR"},{"Name":"413-Villers Semeuse-Docteur l'Hoste","Address":"33 Av. Jean Jaurès, 08000 Villers-Semeuse, France","Phone":"0324550900","ATT":"Aurelie HUGOT-JEANNARD","TMS":"TMS 10","Statut":"En sourcing","Latitude":"49.7409888","Longitude":"4.7433228","Type":"ESMS"},{"Name":"416-Signy l'abbaye-Haras","Address":"500 Rue de Thin, 08460 Signy-l'Abbaye, France","Phone":"0324550600","ATT":"Aurelie HUGOT-JEANNARD","TMS":"TMS 10","Statut":"En sourcing","Latitude":"49.6988499","Longitude":"4.4226557","Type":"ESMS"},{"Name":"417-Seysses","Address":"","Phone":"","ATT":"Blandine CHOPIN","TMS":"TMS 31","Statut":"En sourcing","Latitude":null,"Longitude":null,"Type":"Clinique psy"},{"Name":"419-Parc","Address":"","Phone":"","ATT":"Aurelie HUGOT-JEANNARD","TMS":"TMS 10","Statut":"En sourcing","Latitude":null,"Longitude":null,"Type":"Clinique SSR"},{"Name":"423-Castelviel","Address":"","Phone":"","ATT":"Blandine CHOPIN","TMS":"TMS 31","Statut":"En sourcing","Latitude":null,"Longitude":null,"Type":"Clinique psy"},{"Name":"432-Bellefontaine","Address":"","Phone":"","ATT":"Vera Bernard","TMS":"TMS 54","Statut":"En sourcing","Latitude":null,"Longitude":null,"Type":"Clinique SSR"},{"Name":"438-Pont du Gard","Address":"2 Avenue du Pont du Gard, Remoulins, France","Phone":"0466376637","ATT":"Alexandra Malartre","TMS":"TMS ESMS (cabinet virtuel)","Statut":"En sourcing","Latitude":"43.934764","Longitude":"4.5571339","Type":"Clinique psy"},{"Name":"451-Institut Médical Spécialisé de l’Eure","Address":"12 Pl. Ernest Thorel, 27400 Louviers, France","Phone":"0140781515","ATT":"Pichard Jean-Baptiste","TMS":"TMS 14","Statut":"En sourcing","Latitude":"49.2156986","Longitude":"1.1681061","Type":"Clinique SSR"},{"Name":"456-Bruyères","Address":"","Phone":"","ATT":"Pichard Jean-Baptiste","TMS":"TMS 14","Statut":"En sourcing","Latitude":null,"Longitude":null,"Type":"Clinique SSR"},{"Name":"457-Mer-Air-Soleil","Address":"","Phone":"","ATT":"Alexandra Malartre","TMS":"TMS ESMS (cabinet virtuel)","Statut":"En sourcing","Latitude":null,"Longitude":null,"Type":"Clinique SSR"},{"Name":"459-Pinède","Address":"","Phone":"","ATT":"Alexandra Malartre","TMS":"TMS ESMS (cabinet virtuel)","Statut":"En sourcing","Latitude":null,"Longitude":null,"Type":"Clinique SSR"},{"Name":"460-Bois Guillaume","Address":"","Phone":"","ATT":"Pichard Jean-Baptiste","TMS":"TMS 14","Statut":"En sourcing","Latitude":null,"Longitude":null,"Type":"Clinique SSR"},{"Name":"470-Romilly-Jardins de romilly","Address":"66 Av. de la Liberté, 10100 Romilly-sur-Seine, France","Phone":"0325242524","ATT":"Aurelie HUGOT-JEANNARD","TMS":"TMS 10","Statut":"En sourcing","Latitude":"48.5130375","Longitude":"3.7210254","Type":"ESMS"},{"Name":"471-Troyes-Ilsle","Address":"10 Rue de la Petite Courtine, 10000 Troyes, France","Phone":"0325804017","ATT":"Aurelie HUGOT-JEANNARD","TMS":"TMS 10","Statut":"En sourcing","Latitude":"48.2996286","Longitude":"4.0848677","Type":"ESMS"},{"Name":"492-Tarbes-Soleil d'automne","Address":"","Phone":"","ATT":"Alexandra Malartre","TMS":"TMS ESMS (cabinet virtuel)","Statut":"En sourcing","Latitude":null,"Longitude":null,"Type":"ESMS"},{"Name":"682-Boucles de Moselle","Address":"","Phone":"","ATT":"Vera Bernard","TMS":"TMS 54","Statut":"En sourcing","Latitude":null,"Longitude":null,"Type":"Clinique psy"},{"Name":"683-Boucles de Seine","Address":"","Phone":"","ATT":"Pichard Jean-Baptiste","TMS":"TMS 14","Statut":"En sourcing","Latitude":null,"Longitude":null,"Type":"Clinique psy"},{"Name":"691-Launaguet-Paul et Lisa","Address":"45 Allée des Sablettes, 31140 Launaguet, France","Phone":"0534276100","ATT":"Blandine CHOPIN","TMS":"TMS 31","Statut":"En sourcing","Latitude":"43.6547564","Longitude":"1.4475821","Type":"ESMS"},{"Name":"ADMR MARNE","Address":"79 AVENUE DE SAINTE-MENEHOULDE 51000 CHALONS-EN-CHAMPAGNE","Phone":"","ATT":"Aurelie HUGOT-JEANNARD","TMS":"TMS 10","Statut":"En sourcing","Latitude":"48.9631421","Longitude":"4.375020999999999","Type":"Foyer d'accueil"},{"Name":"AEIM FOYER DE VIE","Address":"21 Rue de la Meuse, Haucourt-Moulaine, France","Phone":"","ATT":"Vera Bernard","TMS":"TMS 55","Statut":"En sourcing","Latitude":"49.515548","Longitude":"5.806736300000001","Type":"Foyer d'accueil"},{"Name":"ANTOINE GRAVIER (IDE)","Address":"2 Rue du Pont, 21500 Buffon, France","Phone":"0766480595","ATT":"Aurelie HUGOT-JEANNARD","TMS":"TMS 21","Statut":"En sourcing","Latitude":"47.6492587","Longitude":"4.2747619","Type":"Cabinet Infirmier"},{"Name":"Cabinet IDEL - Anne MORIN - MSP Vimoutiers","Address":"2 Rue du Dr Marescot, 61120 Vimoutiers, France","Phone":"0681887380","ATT":"Pichard Jean-Baptiste","TMS":"TMS 14","Statut":"En sourcing","Latitude":"48.9243012","Longitude":"0.202974","Type":"Cabinet Infirmier"},{"Name":"Cabinet IDELs Guillaume COUTURIER","Address":"","Phone":"0676827626","ATT":"Blandine CHOPIN","TMS":"TMS 31","Statut":"En sourcing","Latitude":null,"Longitude":null,"Type":"Cabinet Infirmier"},{"Name":"Cabinet IDELs Myriam ALPHA","Address":"3 bis avenue des Pyrénées, 31600 MURET","Phone":"","ATT":"Blandine CHOPIN","TMS":"TMS 31","Statut":"En sourcing","Latitude":"43.4586665","Longitude":"1.3260604","Type":"Cabinet Infirmier"},{"Name":"Cabinet IDELs Yann VASSEUR","Address":"160 Gd rue Saint-Michel, 31400 TOULOUSE","Phone":"0668558305","ATT":"Blandine CHOPIN","TMS":"TMS 31","Statut":"En sourcing","Latitude":"43.5917125","Longitude":"1.4452436","Type":"Cabinet Infirmier"},{"Name":"CABINET INFIRMIER MME RODRIGUEZ IDEL MSP AUXON","Address":"10130 AUXON","Phone":"","ATT":"Aurelie HUGOT-JEANNARD","TMS":"TMS 10","Statut":"En sourcing","Latitude":"48.103362","Longitude":"3.918793","Type":"Cabinet Infirmier"},{"Name":"CABINET INFIRMIER PORTAL VIEIRA","Address":"27 Rue des Saules, 82000 Montauban, France","Phone":"0677003015","ATT":"Blandine CHOPIN","TMS":"TMS 31","Statut":"En sourcing","Latitude":"44.0399246","Longitude":"1.3543523","Type":"Cabinet Infirmier"},{"Name":"CPTS DE LA PLAINE MARTIGNY-LES-BAINS","Address":"88289 MARTIGNY-LES-BAINS","Phone":"","ATT":"Aurelie HUGOT-JEANNARD","TMS":"TMS 10","Statut":"En sourcing","Latitude":"48.104539","Longitude":"5.824175899999999","Type":"CPTS"},{"Name":"CPTS DU COTENTIN","Address":"33 RUE GRANDE VALLEE 50100 CHERBOURG EN COTENTIN","Phone":"","ATT":"Pichard Jean-Baptiste","TMS":"TMS 14","Statut":"En sourcing","Latitude":"49.6425911","Longitude":"-1.6278866","Type":"CPTS"},{"Name":"DIRECTION PMI ET PROMOTION DE LA SANTÉ","Address":"3 Rue de la Sablonnière, Meaux, France","Phone":"","ATT":"Aurelie HUGOT-JEANNARD","TMS":"TMS 10","Statut":"En sourcing","Latitude":"48.9572915","Longitude":"2.888184","Type":"Foyer d'accueil"},{"Name":"DOMUS VIE - Ehpad La Barilière","Address":"","Phone":"","ATT":"Pichard Jean-Baptiste","TMS":"TMS 14","Statut":"En sourcing","Latitude":null,"Longitude":null,"Type":"ESMS"},{"Name":"EHPAD - CH CARENTAN","Address":"1 AV QUI QU'EN GROGNE 50500 CARENTAN LES MARAIS","Phone":"+33233425068","ATT":"Pichard Jean-Baptiste","TMS":"TMS 14","Statut":"En sourcing","Latitude":"49.2976495","Longitude":"-1.2531697","Type":"ESMS"},{"Name":"EHPAD - CH SAINT HILAIRE DU HARCOUET","Address":"RTE DE SAINT JAMES 50600 ST HILAIRE DU HARCOUET","Phone":"+33233794444","ATT":"Pichard Jean-Baptiste","TMS":"TMS 14","Statut":"En sourcing","Latitude":"48.5685023","Longitude":"-1.098522","Type":"ESMS"},{"Name":"EHPAD - HL ST-JAMES","Address":"2 RTE DE PONTORSON 50240 ST JAMES","Phone":"+33233898910","ATT":"Pichard Jean-Baptiste","TMS":"TMS 14","Statut":"En sourcing","Latitude":"48.5244586","Longitude":"-1.4315554","Type":"ESMS"},{"Name":"EHPAD - SAINTE MARIE DU MONT","Address":"QUARTIER DES MICLOTS 50480 STE MARIE DU MONT","Phone":"+33233715757","ATT":"Pichard Jean-Baptiste","TMS":"TMS 14","Statut":"En sourcing","Latitude":"49.3783783","Longitude":"-1.2172918","Type":"ESMS"},{"Name":"EHPAD \" DELIVET\"  - DUCEY","Address":"BD JEAN-BAPTISTE DELIVET 50220 DUCEY LES CHERIS","Phone":"+33233892600","ATT":"Pichard Jean-Baptiste","TMS":"TMS 14","Statut":"En sourcing","Latitude":"48.618023","Longitude":"-1.2836343","Type":"ESMS"},{"Name":"EHPAD \" L'ESPERANCE\"-ST PIERRE EGLISE","Address":"33 R DES FOLLIERES 50330 ST PIERRE EGLISE","Phone":"+33233543358","ATT":"Pichard Jean-Baptiste","TMS":"TMS 14","Statut":"En sourcing","Latitude":"49.67086510000001","Longitude":"-1.4017987","Type":"ESMS"},{"Name":"EHPAD \"ELISABETH DE SURVILLE\"-MARTINVA","Address":"7 RTE DE LA POSTE 50690 MARTINVAST","Phone":"+33233218570","ATT":"Pichard Jean-Baptiste","TMS":"TMS 14","Statut":"En sourcing","Latitude":"49.6009456","Longitude":"-1.6600269","Type":"ESMS"},{"Name":"EHPAD \"JOURDAN\" - MAGNEVILLE","Address":"2  LE FERRAGE 50260 MAGNEVILLE","Phone":"+33233522680","ATT":"Pichard Jean-Baptiste","TMS":"TMS 14","Statut":"En sourcing","Latitude":"49.447703","Longitude":"-1.546263","Type":"ESMS"},{"Name":"EHPAD \"L'AUBADE\" - FLAMANVILLE","Address":"2 R DU VALMANOIR 50340 FLAMANVILLE","Phone":"+33233876230","ATT":"Pichard Jean-Baptiste","TMS":"TMS 14","Statut":"En sourcing","Latitude":"49.5317494","Longitude":"-1.8645202","Type":"ESMS"},{"Name":"EHPAD \"L'EMERAUDE\" - GRANVILLE","Address":"225 R JEANNE JUGAN 50400 GRANVILLE","Phone":"+33233905500","ATT":"Pichard Jean-Baptiste","TMS":"TMS 14","Statut":"En sourcing","Latitude":"48.8341651","Longitude":"-1.5818925","Type":"ESMS"},{"Name":"EHPAD \"LA BUCAILLE\" - CHERBOURG","Address":"7 R DE LA BUCAILLE 50100 CHERBOURG EN COTENTIN","Phone":"+33233530184","ATT":"Pichard Jean-Baptiste","TMS":"TMS 14","Statut":"En sourcing","Latitude":"49.641046","Longitude":"-1.631096","Type":"ESMS"},{"Name":"EHPAD \"LA DEMEURE DU MAUPAS\"-CHERBOURG","Address":"16 R DU MAUPAS 50100 CHERBOURG EN COTENTIN","Phone":"+33233426000","ATT":"Pichard Jean-Baptiste","TMS":"TMS 14","Statut":"En sourcing","Latitude":"49.632872","Longitude":"-1.6127182","Type":"ESMS"},{"Name":"EHPAD \"LA QUINCAMPOISE\"","Address":"15 R DE FRANCHE COMTE 50100 CHERBOURG EN COTENTIN","Phone":"+33233885200","ATT":"Pichard Jean-Baptiste","TMS":"TMS 14","Statut":"En sourcing","Latitude":"49.6241595","Longitude":"-1.6252156","Type":"ESMS"},{"Name":"EHPAD \"LA SERENITE\"","Address":"47 R ADRIEN GIRETTES 50110 CHERBOURG EN COTENTIN","Phone":"+33233206868","ATT":"Pichard Jean-Baptiste","TMS":"TMS 14","Statut":"En sourcing","Latitude":"49.6392206","Longitude":"-1.5816997","Type":"ESMS"},{"Name":"EHPAD \"LE COISEL\" - CH COUTANCES","Address":"R DE LA GARE 50200 COUTANCES","Phone":"+33233474000","ATT":"Pichard Jean-Baptiste","TMS":"TMS 14","Statut":"En sourcing","Latitude":"49.0412032","Longitude":"-1.4425855","Type":"ESMS"},{"Name":"EHPAD \"LE MANOIR\" - CH COUTANCES","Address":"R DE LA GARE 50200 COUTANCES","Phone":"+33233474000","ATT":"Pichard Jean-Baptiste","TMS":"TMS 14","Statut":"En sourcing","Latitude":"49.0412032","Longitude":"-1.4425855","Type":"ESMS"},{"Name":"EHPAD \"LE TEILLEUL\" site résidence les 3 provinces","Address":"4 R DES ECOLES 50640 LE TEILLEUL","Phone":"+33233793770","ATT":"Pichard Jean-Baptiste","TMS":"TMS 14","Statut":"En sourcing","Latitude":"48.5355749","Longitude":"-0.8726031","Type":"ESMS"},{"Name":"EHPAD \"LE VERSAILLES NORMAND\"","Address":"10 CHE DE LA PLANQUE 50700 VALOGNES","Phone":"+33233402525","ATT":"Pichard Jean-Baptiste","TMS":"TMS 14","Statut":"En sourcing","Latitude":"49.56008","Longitude":"-1.5098045","Type":"ESMS"},{"Name":"EHPAD \"LEMPERIERE\"","Address":"LA LANDE 50250 NEUFMESNIL","Phone":"+33233460035","ATT":"Pichard Jean-Baptiste","TMS":"TMS 14","Statut":"En sourcing","Latitude":"49.3223569","Longitude":"-1.535992","Type":"ESMS"},{"Name":"EHPAD \"LES HORTENSIAS\" -  MARIGNY","Address":"36 AV DU 13 JUIN 1944 50570 MARIGNY LE LOZON","Phone":"+33233771477","ATT":"Pichard Jean-Baptiste","TMS":"TMS 14","Statut":"En sourcing","Latitude":"49.0983895","Longitude":"-1.2400656","Type":"ESMS"},{"Name":"EHPAD \"LES HORTENSIAS\" - BRICQUEBEC","Address":"AV DE LA GARE 50260 BRICQUEBEC EN COTENTIN","Phone":"+33233044940","ATT":"Pichard Jean-Baptiste","TMS":"TMS 14","Statut":"En sourcing","Latitude":"49.4718352","Longitude":"-1.6389882","Type":"ESMS"},{"Name":"EHPAD \"LES LILAS\" - CH COUTANCES","Address":"R DE LA GARE 50200 COUTANCES","Phone":"+33233474000","ATT":"Pichard Jean-Baptiste","TMS":"TMS 14","Statut":"En sourcing","Latitude":"49.0412032","Longitude":"-1.4425855","Type":"ESMS"},{"Name":"EHPAD \"LES PERVENCHES\" - BIEVILLE","Address":"LIEU-DIT LES PETITES CHAUSSÉES 14112 BIEVILLE BEUVILLE","Phone":"","ATT":"Pichard Jean-Baptiste","TMS":"TMS 14","Statut":"En sourcing","Latitude":"49.2411529","Longitude":"-0.3200468","Type":"ESMS"},{"Name":"EHPAD \"LES POMMIERS\" - CH COUTANCES","Address":"R DE LA GARE 50200 COUTANCES","Phone":"+33233474000","ATT":"Pichard Jean-Baptiste","TMS":"TMS 14","Statut":"En sourcing","Latitude":"49.0412032","Longitude":"-1.4425855","Type":"ESMS"},{"Name":"EHPAD \"MAISON D'ACCUEIL DU BEUVRON\"","Address":"12 RTE DE SAINT JAMES 50240 ST SENIER DE BEUVRON","Phone":"+33233484368","ATT":"Pichard Jean-Baptiste","TMS":"TMS 14","Statut":"En sourcing","Latitude":"48.5726289","Longitude":"-1.311613","Type":"ESMS"},{"Name":"EHPAD \"RENE ET LUCILE SCHMITT\"","Address":"10 R DU ROULE 50108 CHERBOURG OCTEVILLE CEDEX","Phone":"+33233234100","ATT":"Pichard Jean-Baptiste","TMS":"TMS 14","Statut":"En sourcing","Latitude":"49.6306135","Longitude":"-1.6197571","Type":"ESMS"},{"Name":"EHPAD \"RéSIDENCE DES éGLANTINES\"","Address":"14 R SAINT MARTIN 50410 PERCY EN NORMANDIE","Phone":"+33233692920","ATT":"Pichard Jean-Baptiste","TMS":"TMS 14","Statut":"En sourcing","Latitude":"48.9166852","Longitude":"-1.1893245","Type":"ESMS"},{"Name":"EHPAD \"ROLAND RICORDEAU\" - LA HAGUE","Address":"3 R DES ECOLIERS 50440 LA HAGUE","Phone":"+33233217101","ATT":"Pichard Jean-Baptiste","TMS":"TMS 14","Statut":"En sourcing","Latitude":"49.665283","Longitude":"-1.832322","Type":"ESMS"},{"Name":"EHPAD \"SAINT COEUR DE MARIE\"-AVRANCHES","Address":"21 R DU DOCTEUR BECHET 50300 AVRANCHES","Phone":"+33233580260","ATT":"Pichard Jean-Baptiste","TMS":"TMS 14","Statut":"En sourcing","Latitude":"48.68569369999999","Longitude":"-1.3531475","Type":"ESMS"},{"Name":"EHPAD \"SAINT JOSEPH\" - ISIGNY SUR MER","Address":"14 AVENUE DE LA TOUR DU PIN 14230 ISIGNY SUR MER","Phone":"","ATT":"Pichard Jean-Baptiste","TMS":"TMS 14","Statut":"En sourcing","Latitude":"49.3178423","Longitude":"-1.105062","Type":"ESMS"},{"Name":"EHPAD \"SAINT JOSEPH\" - SOURDEVAL","Address":"23 AV MARéCHAL FOCH 50150 SOURDEVAL","Phone":"+33233692020","ATT":"Pichard Jean-Baptiste","TMS":"TMS 14","Statut":"En sourcing","Latitude":"48.7238492","Longitude":"-0.9257373999999999","Type":"ESMS"},{"Name":"EHPAD \"SAINT MICHEL\" - GRAIGNES","Address":"17 R L'AUNAY 50620 GRAIGNES MESNIL ANGOT","Phone":"+33233555978","ATT":"Pichard Jean-Baptiste","TMS":"TMS 14","Statut":"En sourcing","Latitude":"49.235308","Longitude":"-1.208704","Type":"ESMS"},{"Name":"EHPAD \"SAINT MICHEL\" - ST PAIR SUR MER","Address":"174 R SAINT-MICHEL 50380 ST PAIR SUR MER","Phone":"+33233912000","ATT":"Pichard Jean-Baptiste","TMS":"TMS 14","Statut":"En sourcing","Latitude":"48.8159713","Longitude":"-1.5680713","Type":"ESMS"},{"Name":"EHPAD ARC-EN-SéE - CH AVRANCHES","Address":"59 R DE LA LIBERTE 50303 AVRANCHES CEDEX","Phone":"+33233894000","ATT":"Pichard Jean-Baptiste","TMS":"TMS 14","Statut":"En sourcing","Latitude":"48.69335239999999","Longitude":"-1.3520556","Type":"ESMS"},{"Name":"EHPAD BONNES GENS ST SAUVEUR VILLAGES","Address":"2 R BLANCHE DE CASTILLE 50490 ST SAUVEUR VILLAGES","Phone":"+33233073110","ATT":"Pichard Jean-Baptiste","TMS":"TMS 14","Statut":"En sourcing","Latitude":"49.130348","Longitude":"-1.4095291","Type":"ESMS"},{"Name":"EHPAD CONSTANTIA - COUTANCES","Address":"9 CITE DES SAPINS 50200 COUTANCES","Phone":"+33233451555","ATT":"Pichard Jean-Baptiste","TMS":"TMS 14","Statut":"En sourcing","Latitude":"49.0505362","Longitude":"-1.4383562","Type":"ESMS"},{"Name":"EHPAD DE  VILLEDIEU LES POELES","Address":"12 R JEAN GASTE 50800 VILLEDIEU LES POELES ROUFF","Phone":"+33233914300","ATT":"Pichard Jean-Baptiste","TMS":"TMS 14","Statut":"En sourcing","Latitude":"48.8425369","Longitude":"-1.2229863","Type":"ESMS"},{"Name":"EHPAD DE CREANCES","Address":"62 R DES ECOLES 50710 CREANCES","Phone":"+33233465545","ATT":"Pichard Jean-Baptiste","TMS":"TMS 14","Statut":"En sourcing","Latitude":"49.2000283","Longitude":"-1.5640191","Type":"ESMS"},{"Name":"EHPAD DE LESSAY","Address":"16 R GASLONDE 50430 LESSAY","Phone":"+33233465589","ATT":"Pichard Jean-Baptiste","TMS":"TMS 14","Statut":"En sourcing","Latitude":"49.215573","Longitude":"-1.533901","Type":"ESMS"},{"Name":"EHPAD DE PONTORSON","Address":"AV LA CHAUSSéE VILLECHéREL 50170 PONTORSON","Phone":"+33233607200","ATT":"Pichard Jean-Baptiste","TMS":"TMS 14","Statut":"En sourcing","Latitude":"48.5533481","Longitude":"-1.5094803","Type":"ESMS"},{"Name":"EHPAD DE SAINT-LO","Address":"715 R DUNANT 50000 ST LO","Phone":"+33233063333","ATT":"Pichard Jean-Baptiste","TMS":"TMS 14","Statut":"En sourcing","Latitude":"49.1053465","Longitude":"-1.1075769","Type":"ESMS"},{"Name":"EHPAD DE TONGE - AVRANCHES","Address":"52 R DE VERDUN 50300 AVRANCHES","Phone":"+33233585454","ATT":"Pichard Jean-Baptiste","TMS":"TMS 14","Statut":"En sourcing","Latitude":"48.679604","Longitude":"-1.3559798","Type":"ESMS"},{"Name":"EHPAD L'OREE DES PINS","Address":"Avenue DE BONEN 72230 MULSANNE","Phone":"","ATT":"Mélanie Chevé","TMS":"TMS 72","Statut":"En sourcing","Latitude":"47.9132062","Longitude":"0.2468094","Type":"ESMS"},{"Name":"EHPAD LA BONANCA","Address":"LES GRAZEILHETS  RUE DES GENETS 11430 GRUISSAN","Phone":"","ATT":"Blandine CHOPIN","TMS":"TMS 11","Statut":"En sourcing","Latitude":"43.1038389","Longitude":"3.0930354","Type":"ESMS"},{"Name":"EHPAD LA DEMEURE CASSINE - MONTEBOURG","Address":"5 RTE D'HUBERVILLE 50310 MONTEBOURG","Phone":"+33233217070","ATT":"Pichard Jean-Baptiste","TMS":"TMS 14","Statut":"En sourcing","Latitude":"49.4906272","Longitude":"-1.3849278","Type":"ESMS"},{"Name":"EHPAD LA HAYE-MONTSENELLE","Address":"30 RTE DES MOULINS 50250 MONTSENELLE","Phone":"+33233719813","ATT":"Pichard Jean-Baptiste","TMS":"TMS 14","Statut":"En sourcing","Latitude":"49.30635729999999","Longitude":"-1.5309507","Type":"ESMS"},{"Name":"EHPAD LE CHAMP DE L'ORMEAU","Address":"35 Rue DE L'ORMEAU 72700 ROUILLON","Phone":"","ATT":"Mélanie Chevé","TMS":"TMS 72","Statut":"En sourcing","Latitude":"48.0072987","Longitude":"0.1411229","Type":"ESMS"},{"Name":"EHPAD LE DONJON - LA HAYE","Address":"9 IMP DE LA RESIDENCE 50250 LA HAYE","Phone":"+33233458181","ATT":"Pichard Jean-Baptiste","TMS":"TMS 14","Statut":"En sourcing","Latitude":"49.29239219999999","Longitude":"-1.5435201","Type":"ESMS"},{"Name":"EHPAD LE GROS HETRE - CHPC","Address":"2 R ARISTIDE  BRIAND 50130 CHERBOURG EN COTENTIN","Phone":"+33233207000","ATT":"Pichard Jean-Baptiste","TMS":"TMS 14","Statut":"En sourcing","Latitude":"49.6282629","Longitude":"-1.648821","Type":"ESMS"},{"Name":"EHPAD LE PAYS VALOGNAIS DE VALOGNES","Address":"AV DU 8 MAI 1945 50700 VALOGNES","Phone":"+33233957005","ATT":"Pichard Jean-Baptiste","TMS":"TMS 14","Statut":"En sourcing","Latitude":"49.5089073","Longitude":"-1.4692929","Type":"ESMS"},{"Name":"EHPAD LE PLATEAU","Address":"4 Rue de l'Atelier 57840 Ottange","Phone":"0382545400","ATT":"Vera Bernard","TMS":"TMS 54","Statut":"En sourcing","Latitude":"49.445156","Longitude":"6.023638","Type":"ESMS"},{"Name":"EHPAD LE SEQUOIA","Address":"1 RUE VICTOR HUGO 68110 ILLZACH","Phone":"","ATT":"Aurelie HUGOT-JEANNARD","TMS":"TMS 10","Statut":"En sourcing","Latitude":"47.7726948","Longitude":"7.356132700000001","Type":"ESMS"},{"Name":"EHPAD LES 4 PROVINCES","Address":"R MONTEGLISE 50720 BARENTON","Phone":"+33233794050","ATT":"Pichard Jean-Baptiste","TMS":"TMS 14","Statut":"En sourcing","Latitude":"48.6026188","Longitude":"-0.8315678","Type":"ESMS"},{"Name":"EHPAD LES LICES-ST SAUVEUR LE VICOMTE","Address":"17 R DES LICES JOURDAN 50390 ST SAUVEUR LE VICOMTE","Phone":"+33233215370","ATT":"Pichard Jean-Baptiste","TMS":"TMS 14","Statut":"En sourcing","Latitude":"49.3864908","Longitude":"-1.5323235","Type":"ESMS"},{"Name":"EHPAD LES LILAS","Address":"65 Rue Emile Zola, Jarny, France","Phone":"0382330652","ATT":"Vera Bernard","TMS":"TMS 54","Statut":"En sourcing","Latitude":"49.1593288","Longitude":"5.8701012","Type":"ESMS"},{"Name":"EHPAD LOUIS PERIER - AGON-COUTAINVILLE","Address":"21 R FERNAND LECHANTEUR 50230 AGON COUTAINVILLE","Phone":"+33233765340","ATT":"Pichard Jean-Baptiste","TMS":"TMS 14","Statut":"En sourcing","Latitude":"49.0455634","Longitude":"-1.5760085","Type":"ESMS"},{"Name":"EHPAD PAUL POIRIER-CH GRANVILLE","Address":"R DES MENNERIES 50406 GRANVILLE CEDEX","Phone":"+33233915000","ATT":"Pichard Jean-Baptiste","TMS":"TMS 14","Statut":"En sourcing","Latitude":"48.8254702","Longitude":"-1.5702102","Type":"ESMS"},{"Name":"EHPAD PIERRE BEREGOVOY","Address":"AV DE TOURVILLE 50120 CHERBOURG EN COTENTIN","Phone":"+33233875490","ATT":"Pichard Jean-Baptiste","TMS":"TMS 14","Statut":"En sourcing","Latitude":"49.651033","Longitude":"-1.650159","Type":"ESMS"},{"Name":"EHPAD RESIDENCE \"L'ERMITAGE\"","Address":"40 AV ETIENNE LECARPENTIER 50100 CHERBOURG EN COTENTIN","Phone":"+33233883888","ATT":"Pichard Jean-Baptiste","TMS":"TMS 14","Statut":"En sourcing","Latitude":"49.6313526","Longitude":"-1.6105309","Type":"ESMS"},{"Name":"EHPAD RéSIDENCE ANNE LE ROY - ST L","Address":"R DU BOIS MARCEL 50000 ST LO","Phone":"+33233777677","ATT":"Pichard Jean-Baptiste","TMS":"TMS 14","Statut":"En sourcing","Latitude":"49.10803","Longitude":"-1.10548","Type":"ESMS"},{"Name":"EHPAD RESIDENCE DE LA MONTAGNE","Address":"HAMEAU DE CAZELLES 2 ALLÉE DES SAPINETTES 11390 CUXAC CABARDES","Phone":"","ATT":"Blandine CHOPIN","TMS":"TMS 11","Statut":"En sourcing","Latitude":"43.363567","Longitude":"2.274403","Type":"ESMS"},{"Name":"EHPAD RESIDENCE DU PARC","Address":"3 R DE CARBONNEL 50750 CANISY","Phone":"+33233566310","ATT":"Pichard Jean-Baptiste","TMS":"TMS 14","Statut":"En sourcing","Latitude":"49.0766176","Longitude":"-1.1745897","Type":"ESMS"},{"Name":"EHPAD RESIDENCE EMILIE DE VILLENEUVE","Address":"9 AVENUE EMILIE DE VILLENEUVE 81100 CASTRES","Phone":"","ATT":"Blandine CHOPIN","TMS":"TMS 31","Statut":"En sourcing","Latitude":"43.60119599999999","Longitude":"2.24385","Type":"ESMS"},{"Name":"EHPAD RESIDENCE ROCHEBRUNE- MONTMARTIN","Address":"4 CHE SOUS LES JARDINS 50590 MONTMARTIN SUR MER","Phone":"+33233458888","ATT":"Pichard Jean-Baptiste","TMS":"TMS 14","Statut":"En sourcing","Latitude":"48.988585","Longitude":"-1.524114","Type":"ESMS"},{"Name":"EHPAD RUE DE LA 30E DIV AMERIC-HL MORT","Address":"18 R DE LA 30EME DIV AMERICAINE 50140 MORTAIN BOCAGE","Phone":"+33233692100","ATT":"Pichard Jean-Baptiste","TMS":"TMS 14","Statut":"En sourcing","Latitude":"48.647531","Longitude":"-0.939726","Type":"ESMS"},{"Name":"EHPAD RUE DES DOUETS - HL MORTAIN","Address":"R DES DOUETS 50140 MORTAIN BOCAGE","Phone":"+33233692100","ATT":"Pichard Jean-Baptiste","TMS":"TMS 14","Statut":"En sourcing","Latitude":"48.6470744","Longitude":"-0.9366059","Type":"ESMS"},{"Name":"EHPAD Saint-Riquier","Address":"7 Rue de L'Hôpital, 80135 Saint-Riquier, France","Phone":"0322289292","ATT":"Virginie PRUVOT","TMS":"TMS 59","Statut":"En sourcing","Latitude":"50.13570259999999","Longitude":"1.9459369","Type":"ESMS"},{"Name":"EHPAD Sénior Toulouse Tibaous","Address":"1 rue Albert Carovis, 31100 TOULOUSE","Phone":"0562134134","ATT":"Blandine CHOPIN","TMS":"TMS 31","Statut":"En sourcing","Latitude":"43.5497154","Longitude":"1.3830708","Type":"ESMS"},{"Name":"EHPAD\" LES TILLEULS\" - REFFUVEILLE","Address":"LE BOURG 50520 REFFUVEILLE","Phone":"+33233681222","ATT":"Pichard Jean-Baptiste","TMS":"TMS 14","Statut":"En sourcing","Latitude":"48.668389","Longitude":"-1.112094","Type":"ESMS"},{"Name":"FANELIE GUILBAUD","Address":"6 RUE DE LA GOURLIERE85710 CHATEAUNEUF","Phone":"","ATT":"Mélanie Chevé","TMS":"TMS 72","Statut":"En sourcing","Latitude":"46.9182876","Longitude":"-1.9147844","Type":"Cabinet Infirmier"},{"Name":"GAGNICHARD (IDE)","Address":"1 Chemin des Dards, Suilly-la-Tour, France","Phone":"0776817958","ATT":"Aurelie HUGOT-JEANNARD","TMS":"TMS 21","Statut":"En sourcing","Latitude":"47.33644","Longitude":"3.0657685","Type":"Cabinet Infirmier"},{"Name":"Golbey","Address":"Golbey, France","Phone":"","ATT":"Aurelie HUGOT-JEANNARD","TMS":"TMS 10","Statut":"En sourcing","Latitude":"48.197368","Longitude":"6.440424999999999","Type":"Salle"},{"Name":"IDEL à CRENEY","Address":"","Phone":"","ATT":"Aurelie HUGOT-JEANNARD","TMS":"TMS 10","Statut":"En sourcing","Latitude":null,"Longitude":null,"Type":"Cabinet Infirmier"},{"Name":"IDEL MERLIN Mathilde","Address":"14 bis Rue du Château, 10150 Charmont-sous-Barbuise, France","Phone":"","ATT":"Aurelie HUGOT-JEANNARD","TMS":"TMS 10","Statut":"En sourcing","Latitude":"48.4105618","Longitude":"4.1702173","Type":"Cabinet Infirmier"},{"Name":"IDEL OSTEOPATHE d'Arc en Barrois","Address":"52210 ARC-EN-BARROIS","Phone":"","ATT":"Aurelie HUGOT-JEANNARD","TMS":"TMS 10","Statut":"En sourcing","Latitude":"47.9480872","Longitude":"5.0105279","Type":"Cabinet Infirmier"},{"Name":"JULIEN MARCHESE (IPA, MSP Medivie Templeve-en-Pevele)","Address":"11 Rue du Maresquel, 59242 Templeuve-en-Pévèle, France","Phone":"0643926271","ATT":"Virginie PRUVOT","TMS":"TMS 59","Statut":"En sourcing","Latitude":"50.5242555","Longitude":"3.172695800000001","Type":"CDS/MSP/CM"},{"Name":"La Condamine Chatelard","Address":"","Phone":"0675342224","ATT":"Non assigné","TMS":"Inconnu","Statut":"En sourcing","Latitude":null,"Longitude":null,"Type":"Cabinet Infirmier"},{"Name":"Laboratoire ouilab Mirecourt","Address":"88500 Mirecourt, France","Phone":"","ATT":"Vera Bernard","TMS":"TMS 54","Statut":"En sourcing","Latitude":"48.302176","Longitude":"6.133863","Type":"Laboratoire"},{"Name":"LYCEE privé Post-Bac SALIEGE","Address":"3 Rue Georges Bernanos, Balma, France","Phone":"0561247840","ATT":"Blandine CHOPIN","TMS":"TMS 31","Statut":"En sourcing","Latitude":"43.60422399999999","Longitude":"1.4952375","Type":"Etablissement scolaire"},{"Name":"MAIRIE MAIZIÈRES-LA-GRANDE-PAROISSE","Address":"6 RUE DES ÉCOLES 10510 MAIZIÈRES-LA-GRANDE-PAROISSE","Phone":"","ATT":"Aurelie HUGOT-JEANNARD","TMS":"TMS 10","Statut":"En sourcing","Latitude":"48.5094267","Longitude":"3.7870654","Type":"Salle collectivité"},{"Name":"MAIRIE MOITRON","Address":"Grande Rue, 21510 Moitron, France","Phone":"","ATT":"Aurelie HUGOT-JEANNARD","TMS":"TMS 10","Statut":"En sourcing","Latitude":"47.676955","Longitude":"4.820843","Type":"Salle collectivité"},{"Name":"Mallette complément Medi'Caux Bus","Address":"4 Av. de Verdun, 76190 Yvetot, France","Phone":"0610909465","ATT":"Pichard Jean-Baptiste","TMS":"TMS 14","Statut":"En sourcing","Latitude":"49.6193329","Longitude":"0.7575204","Type":"Cabinet Infirmier"},{"Name":"MALLETTE IDEL MEHUN (CPTS BVS)","Address":"48 RUE JEAN CHATELET 18500 MEHUN SUR YEVRE","Phone":"","ATT":"Cécile ABA'ANE","TMS":"TMS 18","Statut":"En sourcing","Latitude":"47.14829040000001","Longitude":"2.2171421","Type":"Cabinet Infirmier"},{"Name":"MMG DENAIN","Address":"Denain, France","Phone":"","ATT":"Virginie PRUVOT","TMS":"TMS 59","Statut":"En sourcing","Latitude":"50.3268982","Longitude":"3.3934812","Type":"Salle collectivité"},{"Name":"MSP GONDRECOURT-LE-CHÂTEAU","Address":"3 PLACE DE LA CORVÉE  55130 GONDRECOURT-LE-CHÂTEAU","Phone":"","ATT":"Vera Bernard","TMS":"TMS 55","Statut":"En sourcing","Latitude":"48.511562","Longitude":"5.5043559","Type":"CDS/MSP/CM"},{"Name":"MSP TANLAY","Address":"1 Rue Haute des Fossés, 89430 TANLAY","Phone":"","ATT":"Aurelie HUGOT-JEANNARD","TMS":"TMS 10","Statut":"En sourcing","Latitude":"47.84745059999999","Longitude":"4.0852137","Type":"CDS/MSP/CM"},{"Name":"PHARMACIE  LAMBERT À VARENNES EN ARGONNE","Address":"20 RUE DE CHEPPY 55270 VARENNES EN ARGONNE","Phone":"","ATT":"Vera Bernard","TMS":"TMS 55","Statut":"En sourcing","Latitude":"49.228642","Longitude":"5.040857","Type":"Pharmacie"},{"Name":"PHARMACIE ALLACH-JANNOT","Address":"3 RUE RAYMOND POINCARÉ 55400 ÉTAIN","Phone":"","ATT":"Vera Bernard","TMS":"TMS 55","Statut":"En sourcing","Latitude":"49.2135152","Longitude":"5.634541599999999","Type":"véhicule de télémédecine assitée"},{"Name":"Pharmacie Alneloise","Address":"13 Rue de la Résistance, Auneau-Bleury-Saint-Symphorien, France","Phone":"33237317025","ATT":"Mélanie Chevé","TMS":"TMS 28","Statut":"En sourcing","Latitude":"48.461094","Longitude":"1.7737669","Type":"Pharmacie"},{"Name":"PHARMACIE BESOMBES","Address":"88 BIS ROUTE DE TOULOUSE 31410 NOE","Phone":"0561874001","ATT":"Blandine CHOPIN","TMS":"TMS 31","Statut":"En sourcing","Latitude":"43.352369","Longitude":"1.2731966","Type":"Pharmacie"},{"Name":"PHARMACIE CHOMEDEY PAULINE RAQUIN","Address":"26 Avenue Chomedey de Maisonneuve, 10000 Troyes, France","Phone":"0325810558","ATT":"Aurelie HUGOT-JEANNARD","TMS":"TMS 10","Statut":"En sourcing","Latitude":"48.303841","Longitude":"4.073263799999999","Type":"Pharmacie"},{"Name":"Pharmacie de Bellême","Address":"23 Place de la République, Bellême, France","Phone":"0233731016","ATT":"Pichard Jean-Baptiste","TMS":"TMS 14","Statut":"En sourcing","Latitude":"48.3763081","Longitude":"0.560891","Type":"Pharmacie"},{"Name":"Pharmacie de Ceton","Address":"19 Rue du Theil, Ceton, France","Phone":"0237297737","ATT":"Pichard Jean-Baptiste","TMS":"TMS 14","Statut":"En sourcing","Latitude":"48.2264259","Longitude":"0.7485541000000001","Type":"Pharmacie"},{"Name":"Pharmacie de FRONCLES","Address":"52320 Froncles, France","Phone":"0325023176","ATT":"Aurelie HUGOT-JEANNARD","TMS":"TMS 10","Statut":"En sourcing","Latitude":"48.300493","Longitude":"5.146930999999999","Type":"Pharmacie"},{"Name":"PHARMACIE DE GASCOGNE","Address":"60 ROUTE D OX 31600 SEYSSES","Phone":"","ATT":"Blandine CHOPIN","TMS":"TMS 31","Statut":"En sourcing","Latitude":"43.4931635","Longitude":"1.312295","Type":"Pharmacie"},{"Name":"PHARMACIE DE L'ARMANCON (Claire LANDRIER)","Address":"81 Grande Rue, 89160 Ancy-le-Franc, France","Phone":"0634965962","ATT":"Aurelie HUGOT-JEANNARD","TMS":"TMS 10","Statut":"En sourcing","Latitude":"47.7757152","Longitude":"4.1624515","Type":"Pharmacie"},{"Name":"PHARMACIE DE LA CROIX VERTE","Address":"11 RUE DE REMUSAT 31000 TOULOUSE","Phone":"","ATT":"Blandine CHOPIN","TMS":"TMS 31","Statut":"En sourcing","Latitude":"43.6055956","Longitude":"1.4439637","Type":"Pharmacie"},{"Name":"Pharmacie de Leves (Mr Benjamin Marchal)","Address":"2 Rue de Josaphat, Lèves, France","Phone":"0237211904","ATT":"Mélanie Chevé","TMS":"TMS 28","Statut":"En sourcing","Latitude":"48.4698279","Longitude":"1.4811602","Type":"Pharmacie"},{"Name":"PHARMACIE DE PONT SUR SEINE","Address":"14 Rue Grande Rue, 10400 Pont-sur-Seine, France","Phone":"0325214114","ATT":"Aurelie HUGOT-JEANNARD","TMS":"TMS 10","Statut":"En sourcing","Latitude":"48.4902609","Longitude":"3.6189488","Type":"Pharmacie"},{"Name":"Pharmacie des Epars (Dominique Le Goff)","Address":"3 Place des Épars, Chartres, France","Phone":"0237210847","ATT":"Mélanie Chevé","TMS":"TMS 28","Statut":"En sourcing","Latitude":"48.4440967","Longitude":"1.4845801","Type":"Pharmacie"},{"Name":"PHARMACIE DES HALLES","Address":"45 Avenue Maréchal Foch, 01400 Châtillon-sur-Chalaronne, France","Phone":"0474550081","ATT":"Laurence KEIM","TMS":"TMS 26","Statut":"En sourcing","Latitude":"46.1208597","Longitude":"4.955873599999999","Type":"Pharmacie"},{"Name":"PHARMACIE DES PYRENEES","Address":"5 RUE MOZART 31600 MURET","Phone":"0561513139","ATT":"Blandine CHOPIN","TMS":"TMS 31","Statut":"En sourcing","Latitude":"43.4488547","Longitude":"1.3192737","Type":"Pharmacie"},{"Name":"PHARMACIE DU CAPITOLE","Address":"18 PLACE DU CAPITOLE 31000 TOULOUSE","Phone":"","ATT":"Blandine CHOPIN","TMS":"TMS 31","Statut":"En sourcing","Latitude":"43.6048792","Longitude":"1.4427444","Type":"Pharmacie"},{"Name":"PHARMACIE DU PONT VERT","Address":"127 Rue de Preize, 10000 Troyes, France","Phone":"0325802964","ATT":"Aurelie HUGOT-JEANNARD","TMS":"TMS 10","Statut":"En sourcing","Latitude":"48.307693","Longitude":"4.068387299999999","Type":"Pharmacie"},{"Name":"PHARMACIE DU THEATRE","Address":"18 Avenue Pasteur, 10400 Nogent-sur-Seine, France","Phone":"0325398121","ATT":"Aurelie HUGOT-JEANNARD","TMS":"TMS 10","Statut":"En sourcing","Latitude":"48.492323","Longitude":"3.502459","Type":"Pharmacie"},{"Name":"PHARMACIE LAFAYETTE DES HALLES","Address":"48 Rue Général de Gaulle, 10000 Troyes, France","Phone":"0325731628","ATT":"Aurelie HUGOT-JEANNARD","TMS":"TMS 10","Statut":"En sourcing","Latitude":"48.29917469999999","Longitude":"4.073852899999999","Type":"Pharmacie"},{"Name":"PHARMACIE LAVERNOSE LACASSE","Address":"1 AVENUE DES PYRENEES 31410 LAVERNOSE LACASSE","Phone":"0561563132","ATT":"Blandine CHOPIN","TMS":"TMS 31","Statut":"En sourcing","Latitude":"43.3940577","Longitude":"1.2599596","Type":"Pharmacie"},{"Name":"PHARMACIE PASTEUR","Address":"116 Bis Avenue Pasteur, Troyes, France","Phone":"0325747327","ATT":"Aurelie HUGOT-JEANNARD","TMS":"TMS 10","Statut":"En sourcing","Latitude":"48.3036203","Longitude":"4.0623289","Type":"Pharmacie"},{"Name":"PHARMACIE RIVE DE SEINE","Address":"6 RUE MARECHAL DE LATTRE DE TASSIGNY 21400 CHATILLON SUR SEINE","Phone":"","ATT":"Aurelie HUGOT-JEANNARD","TMS":"TMS 10","Statut":"En sourcing","Latitude":"47.8601647","Longitude":"4.5724746","Type":"Pharmacie"},{"Name":"Pharmacie Saint sauveur Verdun","Address":"12 Rue sur l'Eau, 55100 Verdun, France","Phone":"","ATT":"Vera Bernard","TMS":"TMS 54","Statut":"En sourcing","Latitude":"49.1551471","Longitude":"5.3911127","Type":"Pharmacie"},{"Name":"PHARMACIE TANLAY","Address":"4 PLACE DU GÉNÉRAL DE GAULLE 89430 TANLAY","Phone":"","ATT":"Aurelie HUGOT-JEANNARD","TMS":"TMS 10","Statut":"En sourcing","Latitude":"47.84818569999999","Longitude":"4.0849962","Type":"Pharmacie"},{"Name":"PLSA COLLINES DU PERCHE (BERD'HUIS)","Address":"1 Avenue de la Poste, 61340 Berd'huis, France","Phone":"","ATT":"Pichard Jean-Baptiste","TMS":"TMS 14","Statut":"En sourcing","Latitude":"48.345734","Longitude":"0.7431479999999999","Type":"CDS/MSP/CM"},{"Name":"PROJET CPTS MHVA Visites à domicile IDEL","Address":"","Phone":"","ATT":"Blandine CHOPIN","TMS":"TMS 11","Statut":"En sourcing","Latitude":null,"Longitude":null,"Type":"Cabinet Infirmier"},{"Name":"Projet CPTS Volvestre - Cœur de Garonne","Address":"29 avenue de Toulouse, 31390 CARBONNE","Phone":"","ATT":"Blandine CHOPIN","TMS":"TMS 31","Statut":"En sourcing","Latitude":"43.298551","Longitude":"1.22502","Type":"CPTS"},{"Name":"RESIDENCE \"LES POMMIERS\" - DANGY","Address":"3 R SABOTIERS 50750 DANGY","Phone":"+33233566310","ATT":"Pichard Jean-Baptiste","TMS":"TMS 14","Statut":"En sourcing","Latitude":"49.0436839","Longitude":"-1.2239042","Type":"ESMS"},{"Name":"RESIDENCE SENIORS LES JARDINS D'ARCADIE","Address":"24 bis Rue Albert Maignan, Le Mans, France","Phone":"0243896500","ATT":"Mélanie Chevé","TMS":"TMS 72","Statut":"En sourcing","Latitude":"48.005245","Longitude":"0.2042772","Type":"ESMS"},{"Name":"RESIDENCES DE L'EVRE","Address":"","Phone":"","ATT":"Non assigné","TMS":"Inconnu","Statut":"En sourcing","Latitude":null,"Longitude":null,"Type":"ESMS"},{"Name":"SALLE BOURG LES VALENCE","Address":"","Phone":"","ATT":"Laurence KEIM","TMS":"TMS 26","Statut":"En sourcing","Latitude":null,"Longitude":null,"Type":"Salle collectivité"},{"Name":"SALLE DE DIEULEFIT","Address":"Mairie, Rue Justin Jouve, Dieulefit, France","Phone":"0475469680","ATT":"Laurence KEIM","TMS":"TMS 26","Statut":"En sourcing","Latitude":"44.5260727","Longitude":"5.065906399999999","Type":"Salle collectivité"},{"Name":"SALLE MONTELIMAR","Address":"Mairie de Montélimar, Place Emile Loubet, Montélimar, France","Phone":"0475002500","ATT":"Laurence KEIM","TMS":"TMS 26","Statut":"En sourcing","Latitude":"44.55680840000001","Longitude":"4.7494321","Type":"Salle collectivité"},{"Name":"SAMSAH BOIS L'ABBESSE","Address":"2 AVENUE RAOUL LAURENT 52100 SAINT DIZIER","Phone":"0325064218","ATT":"Aurelie HUGOT-JEANNARD","TMS":"TMS 10","Statut":"En sourcing","Latitude":"48.6445538","Longitude":"4.9630975","Type":"Foyer d'accueil"},{"Name":"UGECAM Darney","Address":"Rte d'Attigny, 88260 Darney, France","Phone":"","ATT":"Vera Bernard","TMS":"TMS 54","Statut":"En sourcing","Latitude":"48.0837752","Longitude":"6.0401991","Type":"Foyer d'accueil"},{"Name":"EMEIS Résidence Les jardins de Beauvallon","Address":"Résidence Les Jardins de Beauvallon - emeis, Chemin de Morgiou, 13009 Marseille, France","Phone":"0491162400","ATT":"Alexandra Malartre","TMS":"TMS ESMS (cabinet virtuel)","Statut":"En sourcing","Latitude":"43.2407557","Longitude":"5.4074897","Type":"ESMS"},{"Name":"IDEL Gerardmer","Address":"Gérardmer, France","Phone":"","ATT":"Vera Bernard","TMS":"TMS 54","Statut":"En sourcing","Latitude":"48.07008099999999","Longitude":"6.877292","Type":"Cabinet Infirmier"},{"Name":"EMEIS Résidence La Villa Des Ainés","Address":"28 Avenue de la République, 78270 Bonnières-sur-Seine, France","Phone":"0130985858","ATT":"Non assigné","TMS":"Inconnu","Statut":"En sourcing","Latitude":"49.0375233","Longitude":"1.5846147","Type":"Salle"},{"Name":"INICEA Clinique Villa des Roses","Address":"62 Rue Commandant Charcot, 69005 Lyon, France","Phone":"","ATT":"Non assigné","TMS":"Inconnu","Statut":"En sourcing","Latitude":"45.7526449","Longitude":"4.8031462","Type":"Salle"},{"Name":"Pharmacie TERNAUX","Address":"Marœuil, France","Phone":"0686643082","ATT":"Virginie PRUVOT","TMS":"TMS 59","Statut":"En sourcing","Latitude":"50.3242133","Longitude":"2.7093191","Type":"Pharmacie"},{"Name":"Cabinet IDEL : Gernez Eléonore et Heuzey Jennifer","Address":"55 Rue de la République, Saint-Prest, France","Phone":"0627386398","ATT":"Non assigné","TMS":"Inconnu","Statut":"En sourcing","Latitude":"48.4905401","Longitude":"1.5296272","Type":"Cabinet Infirmier"},{"Name":"121 - EMEIS Résidence Saint Sébastien - Albertville","Address":"873 Route de Tours, 73200 Albertville, France","Phone":"0479892100","ATT":"Alexandra Malartre","TMS":"TMS ESMS Emeis","Statut":"En sourcing","Latitude":"45.66886969999999","Longitude":"6.405044999999999","Type":"ESMS"},{"Name":"390 - EMEIS Résidence Les Portes du Lubéron - Avignon","Address":"2 Avenue de la Gare, 84000 Avignon, France","Phone":"0490165100","ATT":"Alexandra Malartre","TMS":"TMS ESMS Emeis","Statut":"En sourcing","Latitude":"43.92787389999999","Longitude":"4.7850328","Type":"ESMS"},{"Name":"428 - EMEIS Résidence L’Ambarroise - Ambérieu-en-Bugey","Address":"58 Av. Paul Painlevé, 01500 Ambérieu-en-Bugey, France","Phone":"0474461111","ATT":"Alexandra Malartre","TMS":"TMS ESMS Emeis","Statut":"En sourcing","Latitude":"45.9580117","Longitude":"5.3415192","Type":"ESMS"},{"Name":"465 - EMEIS Résidence Gaïa - GAN","Address":"51 Chem. de Mesplet, 64290 Gan, France","Phone":"0559989550","ATT":"Alexandra Malartre","TMS":"TMS ESMS Emeis","Statut":"En sourcing","Latitude":"43.2341527","Longitude":"-0.3973338","Type":"ESMS"},{"Name":"KORIAN VILLA IMPERATRICE","Address":"29/31 Boulevard Solferino, Rueil-Malmaison, France","Phone":"0147166200","ATT":"Alexandra Malartre","TMS":"TMS ESMS (cabinet virtuel)","Statut":"En sourcing","Latitude":"48.8747719","Longitude":"2.1839941","Type":"ESMS"},{"Name":"KORIAN FLORIAN CARNOT","Address":"108 Avenue Aristide Briand, Antony, France","Phone":"0140969346","ATT":"Alexandra Malartre","TMS":"TMS ESMS (cabinet virtuel)","Statut":"En sourcing","Latitude":"48.7592858","Longitude":"2.3075918","Type":"ESMS"},{"Name":"KORIAN CASTEL VOLTAIRE","Address":"17 Avenue de la Division Leclerc, Châtillon, France","Phone":"0181895300","ATT":"Alexandra Malartre","TMS":"TMS ESMS (cabinet virtuel)","Statut":"En sourcing","Latitude":"48.7985778","Longitude":"2.2838808","Type":"ESMS"},{"Name":"KORIAN BRUNE","Address":"117 Boulevard Brune, Paris, France","Phone":"0153902050","ATT":"Alexandra Malartre","TMS":"TMS ESMS (cabinet virtuel)","Statut":"En sourcing","Latitude":"48.8254856","Longitude":"2.3166967","Type":"ESMS"},{"Name":"KORIAN LES PINS VERTS","Address":"35 Rue Emile Eudes, Narbonne, France","Phone":"0468405200","ATT":"Blandine CHOPIN","TMS":"TMS 11","Statut":"En sourcing","Latitude":"43.1832909","Longitude":"2.98359","Type":"ESMS"},{"Name":"PHARMACIE de la RIVIERE","Address":"37b Rue Jean Jaurès, 10440 La Rivière-de-Corps, France","Phone":"","ATT":"Aurelie HUGOT-JEANNARD","TMS":"TMS 10","Statut":"En sourcing","Latitude":"48.2872482","Longitude":"4.032295500000001","Type":"Pharmacie"},{"Name":"CAB IDEL Saint Vaast la Hougue","Address":"","Phone":"","ATT":"Non assigné","TMS":"Inconnu","Statut":"En sourcing","Latitude":null,"Longitude":null,"Type":"Salle"},{"Name":"CAB IDEL Saint Vaast la Hougue (50)","Address":"","Phone":"","ATT":"Pichard Jean-Baptiste","TMS":"TMS 14","Statut":"En sourcing","Latitude":null,"Longitude":null,"Type":"Cabinet Infirmier"},{"Name":"KORIAN VILLA PAPYRI","Address":"7 Allée de Saint-Jean-des-Vignes, Chalon-sur-Saône, France","Phone":"","ATT":"Non assigné","TMS":"Inconnu","Statut":"En sourcing","Latitude":"46.7965809","Longitude":"4.8562026","Type":"Salle"},{"Name":"SEDNA Le Temps des Roses","Address":"89/91 Rue Jean Jaurès, 94700 Maisons-Alfort, France","Phone":"0143535050","ATT":"Non assigné","TMS":"Inconnu","Statut":"En sourcing","Latitude":"48.8000403","Longitude":"2.4326212","Type":"Salle"},{"Name":"Pharmacie Joly à  Diarville","Address":"49 Rue de Nancy, Diarville, France","Phone":"06674348446","ATT":"Vera Bernard","TMS":"TMS 54","Statut":"En sourcing","Latitude":"48.4002468","Longitude":"6.1349232","Type":"Pharmacie"},{"Name":"KORIAN BONISIACA","Address":"5 Rue René Char, 93140 Bondy, France","Phone":"0148023800","ATT":"Non assigné","TMS":"Inconnu","Statut":"En sourcing","Latitude":"48.8900601","Longitude":"2.4874995","Type":"ESMS"},{"Name":"CAB IDEL de Selommes","Address":"26 Rue de la Vallée, 41100 Selommes, France","Phone":"0698151387","ATT":"Cécile ABA'ANE","TMS":"TMS 41","Statut":"En sourcing","Latitude":"47.7532246","Longitude":"1.1918719","Type":"Cabinet Infirmier"},{"Name":"EHPADs CCAS du Mans","Address":"","Phone":"","ATT":"Mélanie Chevé","TMS":"TMS 72","Statut":"En sourcing","Latitude":null,"Longitude":null,"Type":"ESMS"},{"Name":"KORIAN LES TYBILLES","Address":"1 Rue des Tybilles, Meudon, France","Phone":"0146232700","ATT":"Non assigné","TMS":"Inconnu","Statut":"En sourcing","Latitude":"48.8193054","Longitude":"2.2324462","Type":"Salle"},{"Name":"PHARMACIE PAUL HAZARD - NANTY","Address":"63 RUE DU MARECHAL JOFFRE 18100 VIERZON","Phone":"0248752503","ATT":"Cécile ABA'ANE","TMS":"TMS 18","Statut":"En sourcing","Latitude":"47.2227753","Longitude":"2.0708833","Type":"Pharmacie"},{"Name":"034-EMEIS Résidence LES RIVES DE CABESSUT","Address":"15 Quai Champollion, 46000 Cahors, France","Phone":"0565533535","ATT":"Alexandra Malartre","TMS":"TMS ESMS Emeis","Statut":"Ouverture en cours","Latitude":"44.4483785","Longitude":"1.4432567","Type":"ESMS"},{"Name":"125 - EMEIS Résidence CRAMPEL","Address":"100 Avenue Crampel, Toulouse, France","Phone":"0562193700","ATT":"Blandine CHOPIN","TMS":"TMS 31","Statut":"Ouverture en cours","Latitude":"43.5854882","Longitude":"1.4575282","Type":"ESMS"},{"Name":"Association AURORE","Address":"16 Impasse des Huerdets, 10800 Saint-Julien-les-Villas, France","Phone":"0353590045","ATT":"Aurelie HUGOT-JEANNARD","TMS":"TMS 10","Statut":"Ouverture en cours","Latitude":"48.27063829999999","Longitude":"4.0950874","Type":"Cabinet Infirmier"},{"Name":"ASSOCIATION BREVIANDES ACCUEIL SOCIAL","Address":"21 RUE DES ÉCOLES 10450 BRÉVIANDES","Phone":"","ATT":"Aurelie HUGOT-JEANNARD","TMS":"TMS 10","Statut":"Ouverture en cours","Latitude":"48.2570497","Longitude":"4.0974714","Type":"ESMS"},{"Name":"CAB IDEL - GRANCAMP MAISY","Address":"2 Pl. de la République, 14450 Grandcamp-Maisy, France","Phone":"0231226770","ATT":"Pichard Jean-Baptiste","TMS":"TMS 14","Statut":"Ouverture en cours","Latitude":"49.387558","Longitude":"-1.041204","Type":"Cabinet Infirmier"},{"Name":"CHARIOT CPTS PORTES DE PROVENCE","Address":"84 Avenue Saint Lazare, 26200 Montélimar, France","Phone":"","ATT":"Laurence KEIM","TMS":"TMS 26","Statut":"Ouverture en cours","Latitude":"44.5722026","Longitude":"4.7550511","Type":"Salle collectivité"},{"Name":"CONSEIL DÉPARTEMENTAL MÉDICOBUS 10","Address":"2 RUE PIERRE LABONDE 10000 TROYES","Phone":"","ATT":"Aurelie HUGOT-JEANNARD","TMS":"TMS 10","Statut":"Ouverture en cours","Latitude":"48.2977788","Longitude":"4.0781737","Type":"véhicule de télémédecine assitée"},{"Name":"CPTS Grand Denain Mallettes visite à domicile","Address":"130 Rue du Marais, 59282 Noyelles-sur-Selle, France","Phone":"0635416910","ATT":"Virginie PRUVOT","TMS":"TMS 59","Statut":"Ouverture en cours","Latitude":"50.2841039","Longitude":"3.387945","Type":"CPTS"},{"Name":"DOCTOBUS LIMOUX","Address":"","Phone":"","ATT":"Blandine CHOPIN","TMS":"TMS 11","Statut":"Ouverture en cours","Latitude":null,"Longitude":null,"Type":"Vehicule de télémédecine assistée"},{"Name":"Mouzon","Address":"","Phone":"","ATT":"Non assigné","TMS":"Inconnu","Statut":"Ouverture en cours","Latitude":null,"Longitude":null,"Type":"Salle"},{"Name":"EHPAD le Solem","Address":"","Phone":"0329247261","ATT":"Non assigné","TMS":"Inconnu","Statut":"Ouverture en cours","Latitude":null,"Longitude":null,"Type":"ESMS"},{"Name":"EHPAD GLAIRE (CH SEDAN)","Address":"ROUTE DE SEDAN 08200 GLAIRE","Phone":"","ATT":"Vera Bernard","TMS":"TMS 55","Statut":"Ouverture en cours","Latitude":"49.708995","Longitude":"4.919623","Type":"ESMS"},{"Name":"EHPAD La Quicampoise","Address":"15 Rue de Franche Comté, Cherbourg-en-Cotentin, France","Phone":"0233885200","ATT":"Pichard Jean-Baptiste","TMS":"TMS 14","Statut":"Ouverture en cours","Latitude":"49.6241595","Longitude":"-1.6252156","Type":"ESMS"},{"Name":"EHPAD La Serenité","Address":"","Phone":"","ATT":"Pichard Jean-Baptiste","TMS":"TMS 14","Statut":"Ouverture en cours","Latitude":null,"Longitude":null,"Type":"ESMS"},{"Name":"CAB IDEL AVORD","Address":"1 Rue de la Septaine, Avord, France","Phone":"","ATT":"Cécile ABA'ANE","TMS":"TMS 18","Statut":"Ouverture en cours","Latitude":"47.0342688","Longitude":"2.6514292","Type":"Cabinet Infirmier"},{"Name":"EHPAD Le Clos à Froment","Address":"","Phone":"","ATT":"Non assigné","TMS":"Inconnu","Statut":"Ouverture en cours","Latitude":null,"Longitude":null,"Type":"Salle"},{"Name":"EHPAD Les Bruyères (groupe SOS Séniors)","Address":"9 Rue de Courcy, Épinal, France","Phone":"0329828950","ATT":"Vera Bernard","TMS":"TMS 54","Statut":"Ouverture en cours","Latitude":"48.17842","Longitude":"6.43079","Type":"ESMS"},{"Name":"EHPAD LES GODENETTES","Address":"Rue Louis Lemoine, 59125 Trith-Saint-Léger, France","Phone":"0327200940","ATT":"Virginie PRUVOT","TMS":"TMS 59","Statut":"Ouverture en cours","Latitude":"50.3217679","Longitude":"3.4837184","Type":"ESMS"},{"Name":"CAB IDEL BRIARE_Mallette CPTS Giennois-Berry","Address":"3 Rue Saint-Roch, 45250 Briare","Phone":"0627192785","ATT":"Cécile ABA'ANE","TMS":"TMS 18","Statut":"Ouverture en cours","Latitude":"47.6377813","Longitude":"2.7382093","Type":"Cabinet Infirmier"},{"Name":"EHPAD Pierre Beregovoy","Address":"","Phone":"","ATT":"Non assigné","TMS":"Inconnu","Statut":"Ouverture en cours","Latitude":null,"Longitude":null,"Type":"Salle"},{"Name":"EMEIS Résidence LE BOSGUERARD","Address":"7 Rue Marie de Vaudemont, 27370 Saint-Pierre-du-Bosguérard, France","Phone":"0235788810","ATT":"Pichard Jean-Baptiste","TMS":"TMS 14","Statut":"Ouverture en cours","Latitude":"49.2575728","Longitude":"0.8963334000000001","Type":"ESMS"},{"Name":"EHPAD Saint Pierre","Address":"2 Rue du Centre, Montrevault-sur-Èvre, France","Phone":"0241757201","ATT":"Aurelie HUGOT-JEANNARD","TMS":"TMS 10","Statut":"Ouverture en cours","Latitude":"47.2703202","Longitude":"-1.0274669","Type":"CPTS"},{"Name":"HADAN joeuf Nancy ( HAD)","Address":"22 Rue Sainte-Alice, Jœuf, France","Phone":"","ATT":"Vera Bernard","TMS":"TMS 54","Statut":"Ouverture en cours","Latitude":"49.2275566","Longitude":"6.0140997","Type":"Domicile"},{"Name":"IDEL BASTIEN DUDZIK","Address":"36 Rue de l'Abbé, 62160 Aix-Noulette, France","Phone":"0634635283","ATT":"Virginie PRUVOT","TMS":"TMS 59","Statut":"Ouverture en cours","Latitude":"50.4251721","Longitude":"2.7096564","Type":"Cabinet Infirmier"},{"Name":"KORIAN CHAMTOU","Address":"6 Mail de la Papoterie, Chambray-lès-Tours, France","Phone":"0247481250","ATT":"Cécile ABA'ANE","TMS":"TMS 18","Statut":"Ouverture en cours","Latitude":"47.338256","Longitude":"0.735833","Type":"ESMS"},{"Name":"KORIAN FRONTENAC","Address":"Rue Diderot, Bram, France","Phone":"0468765480","ATT":"Blandine CHOPIN","TMS":"TMS 11","Statut":"Ouverture en cours","Latitude":"43.2411557","Longitude":"2.1227509","Type":"ESMS"},{"Name":"KORIAN GALLIERA","Address":"104 Av. Henri Barbusse, 92140 Clamart","Phone":"0141092100","ATT":"Alexandra Malartre","TMS":"TMS ESMS (cabinet virtuel)","Statut":"Ouverture en cours","Latitude":"48.8132919","Longitude":"2.2580652","Type":"ESMS"},{"Name":"KORIAN HOME DE L'EBAUPIN","Address":"93 Rue de l'Aumônerie, Coulon, France","Phone":"0549359491","ATT":"Alexandra Malartre","TMS":"TMS ESMS (cabinet virtuel)","Statut":"Ouverture en cours","Latitude":"46.3273646","Longitude":"-0.5881248","Type":"ESMS"},{"Name":"KORIAN JARDINS D'ALESIA","Address":"187 Avenue du Maine, Paris, France","Phone":"0153902828","ATT":"Alexandra Malartre","TMS":"TMS ESMS (cabinet virtuel)","Statut":"Ouverture en cours","Latitude":"48.8306252","Longitude":"2.3260498","Type":"ESMS"},{"Name":"KORIAN L'AGE BLEU","Address":"7 Grande Rue, Roubaix, France","Phone":"0320450606","ATT":"Alexandra Malartre","TMS":"TMS ESMS (cabinet virtuel)","Statut":"Ouverture en cours","Latitude":"50.69230080000001","Longitude":"3.1754881","Type":"ESMS"},{"Name":"KORIAN L'AIR DU TEMPS","Address":"3, rue de la Baronne d'Oberkirch 67000 STRASBOURG ROBERTSAU","Phone":"0388458045","ATT":"Aurelie HUGOT-JEANNARD","TMS":"TMS 10","Statut":"Ouverture en cours","Latitude":"48.5992799","Longitude":"7.7881315","Type":"ESMS"},{"Name":"KORIAN LA CHENAIE","Address":"7 Chem. de Louradou, 31180 Rouffiac-Tolosan, France","Phone":"0561091106","ATT":"Alexandra Malartre","TMS":"TMS ESMS (cabinet virtuel)","Statut":"Ouverture en cours","Latitude":"43.670983","Longitude":"1.5130809","Type":"ESMS"},{"Name":"KORIAN LA PINEDE","Address":"25 Rue Barbazanges, 83110 Sanary-sur-Mer, France","Phone":"0494349191","ATT":"Non assigné","TMS":"Inconnu","Statut":"Ouverture en cours","Latitude":"43.1197054","Longitude":"5.7823273","Type":"ESMS"},{"Name":"KORIAN LA SEILLONNE","Address":"260 Rte de Toulouse, 31130 Pin-Balma, France","Phone":"0561847571","ATT":"Blandine CHOPIN","TMS":"TMS 31","Statut":"Ouverture en cours","Latitude":"43.6256999","Longitude":"1.5472269","Type":"ESMS"},{"Name":"KORIAN LE CLOS DE L'UBY (ex LE CLOS D'ARMAGNAC)","Address":"9 Rue du Cousine, Cazaubon, France","Phone":"0562088481","ATT":"Blandine CHOPIN","TMS":"TMS 11","Statut":"Ouverture en cours","Latitude":"43.93576849999999","Longitude":"-0.06636879999999999","Type":"ESMS"},{"Name":"KORIAN LE GATINAIS","Address":"35 Rue de la Ferté Alais, Maisse, France","Phone":"0164995171","ATT":"Alexandra Malartre","TMS":"TMS ESMS (cabinet virtuel)","Statut":"Ouverture en cours","Latitude":"48.3962181","Longitude":"2.3748338","Type":"ESMS"},{"Name":"KORIAN LE GENTILE","Address":"8 RUE DE LA SAONE 54520 LAXOU","Phone":"0383964602","ATT":"Alexandra Malartre","TMS":"TMS ESMS (cabinet virtuel)","Statut":"Ouverture en cours","Latitude":"48.6957987","Longitude":"6.1296653","Type":"ESMS"},{"Name":"KORIAN LE JARDIN","Address":"121 AVENUE MARTYRS DE LA RÉSISTANCE 76100 ROUEN","Phone":"0235701662","ATT":"Pichard Jean-Baptiste","TMS":"TMS 14","Statut":"Ouverture en cours","Latitude":"49.4208266","Longitude":"1.0795495","Type":"ESMS"},{"Name":"KORIAN LE PLESSIS","Address":"40 Rue de Ligner, La Riche, France","Phone":"0247364000","ATT":"Cécile ABA'ANE","TMS":"TMS 18","Statut":"Ouverture en cours","Latitude":"47.3832697","Longitude":"0.6616963","Type":"ESMS"},{"Name":"KORIAN LE PRUNELLIER","Address":"2 Rue Charles Barrier, Saint-Cyr-sur-Loire, France","Phone":"0247495600","ATT":"Cécile ABA'ANE","TMS":"TMS 18","Statut":"Ouverture en cours","Latitude":"47.4252032","Longitude":"0.6717407999999999","Type":"ESMS"},{"Name":"KORIAN LES AMARANTES","Address":"42 Rue Blaise Pascal, Tours, France","Phone":"0247703838","ATT":"Cécile ABA'ANE","TMS":"TMS 18","Statut":"Ouverture en cours","Latitude":"47.3872483","Longitude":"0.6937894","Type":"ESMS"},{"Name":"KORIAN LES DAMES BLANCHES","Address":"7 Boulevard Preuilly, Tours, France","Phone":"0247215454","ATT":"Cécile ABA'ANE","TMS":"TMS 18","Statut":"Ouverture en cours","Latitude":"47.3943449","Longitude":"0.6746464","Type":"ESMS"},{"Name":"KORIAN LES DEUX MERS","Address":"15 Rue Adrien Régent, Sarzeau, France","Phone":"0297418081","ATT":"Alexandra Malartre","TMS":"TMS ESMS (cabinet virtuel)","Statut":"Ouverture en cours","Latitude":"47.5282494","Longitude":"-2.7604277","Type":"ESMS"},{"Name":"KORIAN LES GARDIOLES","Address":"455 Rue du Devois, 34980 Saint-Gély-du-Fesc, France","Phone":"0499614161","ATT":"Alexandra Malartre","TMS":"TMS ESMS (cabinet virtuel)","Statut":"Ouverture en cours","Latitude":"43.6917804","Longitude":"3.8106862","Type":"ESMS"},{"Name":"KORIAN LES MEUNIERES","Address":"Place Denfert Rochereau, Lunel, France","Phone":"0467832780","ATT":"Blandine CHOPIN","TMS":"TMS 11","Statut":"Ouverture en cours","Latitude":"43.6755567","Longitude":"4.1382275","Type":"ESMS"},{"Name":"KORIAN MONTFRAIS","Address":"35 Rue du Chemin Neuf, Franconville, France","Phone":"0134372000","ATT":"Alexandra Malartre","TMS":"TMS ESMS (cabinet virtuel)","Statut":"Ouverture en cours","Latitude":"48.97627989999999","Longitude":"2.2266128","Type":"ESMS"},{"Name":"KORIAN PARC DE L'ABBAYE","Address":"7 Rue des Demoiselles de Saint-Cyr, Saint-Cyr-l'École, France","Phone":"0130232301","ATT":"Alexandra Malartre","TMS":"TMS ESMS (cabinet virtuel)","Statut":"Ouverture en cours","Latitude":"48.8037569","Longitude":"2.0591223","Type":"ESMS"},{"Name":"KORIAN PARC DES DAMES","Address":"4 ter Rue Henri Dunant, Saint-Germain-en-Laye, France","Phone":"0139103737","ATT":"Alexandra Malartre","TMS":"TMS ESMS (cabinet virtuel)","Statut":"Ouverture en cours","Latitude":"48.9052429","Longitude":"2.0734779","Type":"ESMS"},{"Name":"KORIAN VILLA AMARELLI","Address":"4 Allée Copernic, 57360 Amnéville, France","Phone":"0387620700","ATT":"Alexandra Malartre","TMS":"TMS ESMS (cabinet virtuel)","Statut":"Ouverture en cours","Latitude":"49.25059880000001","Longitude":"6.1308625","Type":"ESMS"},{"Name":"KORIAN VILLA BERAT - LISIEUX","Address":"70 RUE GENERAL LECLERC 14100 LISIEUX","Phone":"0231621605","ATT":"Pichard Jean-Baptiste","TMS":"TMS 14","Statut":"Ouverture en cours","Latitude":"49.1526294","Longitude":"0.2240879","Type":"ESMS"},{"Name":"KORIAN VILLA SAINT HILAIRE","Address":"Avenue Caffin, Saint-Maur-des-Fossés, France","Phone":"0155121440","ATT":"Alexandra Malartre","TMS":"TMS ESMS (cabinet virtuel)","Statut":"Ouverture en cours","Latitude":"48.7923975","Longitude":"2.5057453","Type":"ESMS"},{"Name":"KORIAN VILLE EN VERT","Address":"175 RUE NEUVE DE BEMECOURT 27160 BRETEUIL","Phone":"0232242424","ATT":"Pichard Jean-Baptiste","TMS":"TMS 14","Statut":"Ouverture en cours","Latitude":"48.8389748","Longitude":"0.9101363","Type":"ESMS"},{"Name":"CPTS AXANTE BAYEUX","Address":"3 RUE FRANCOIS COULET  14400 BAYEUX","Phone":"","ATT":"Pichard Jean-Baptiste","TMS":"TMS 14","Statut":"Ouverture en cours","Latitude":"49.28179129999999","Longitude":"-0.7209998999999999","Type":"CPTS"},{"Name":"MAISON DES ETUDIANTS","Address":"6 Rue de la Petite Courtine, 10000 Troyes, France","Phone":"0325817810","ATT":"Aurelie HUGOT-JEANNARD","TMS":"TMS 10","Statut":"Ouverture en cours","Latitude":"48.299473","Longitude":"4.0842373","Type":"Etablissement scolaire"},{"Name":"MALLETTE 1 CPTS OSTREVENT","Address":"","Phone":"","ATT":"Virginie PRUVOT","TMS":"TMS 59","Statut":"Ouverture en cours","Latitude":null,"Longitude":null,"Type":"Cabinet Infirmier"},{"Name":"MALLETTE 2 CPTS OSTREVENT","Address":"","Phone":"","ATT":"Virginie PRUVOT","TMS":"TMS 59","Statut":"Ouverture en cours","Latitude":null,"Longitude":null,"Type":"Cabinet Infirmier"},{"Name":"KORIAN LE TULIPIER","Address":"16 Rue Marcelin Berthelot, 93110 Rosny-sous-Bois, France","Phone":"0149354500","ATT":"Alexandra Malartre","TMS":"TMS ESMS (cabinet virtuel)","Statut":"Ouverture en cours","Latitude":"48.8645815","Longitude":"2.4901159","Type":"ESMS"},{"Name":"MARPA DU CANTON DE THEZE Mallette","Address":"64450 Thèze, France","Phone":"0559043900","ATT":"Blandine CHOPIN","TMS":"TMS 31","Statut":"Ouverture en cours","Latitude":"43.476141","Longitude":"-0.348073","Type":"Foyer d'accueil"},{"Name":"PHARMACIE D'HAULCHIN","Address":"59121 Haulchin, France","Phone":"0637413499","ATT":"Virginie PRUVOT","TMS":"TMS 59","Statut":"Ouverture en cours","Latitude":"50.3154829","Longitude":"3.4399096","Type":"Pharmacie"},{"Name":"PHARMACIE de la Corderie","Address":"270 Rue du Chemin Départemental 44, 88220 Uriménil, France","Phone":"0329307419","ATT":"Vera Bernard","TMS":"TMS 54","Statut":"Ouverture en cours","Latitude":"48.1008231","Longitude":"6.3950928","Type":"Pharmacie"},{"Name":"PHARMACIE Eole","Address":"153 avenue Jacques Douzans, 31600 MURET","Phone":"0561486293","ATT":"Blandine CHOPIN","TMS":"TMS 31","Statut":"Ouverture en cours","Latitude":"43.4676675","Longitude":"1.3279057","Type":"Pharmacie"},{"Name":"PHARMACIE SAINT VORLES","Address":"25 AVENUE  DU MARÉCHAL DE LATTRE DE TASSIGNY 21400 CHÂTILLON-SUR-SEINE","Phone":"0682795943","ATT":"Aurelie HUGOT-JEANNARD","TMS":"TMS 10","Statut":"Ouverture en cours","Latitude":"47.85886259999999","Longitude":"4.5726167","Type":"Pharmacie"},{"Name":"Projet CPTS Comminges (ehpad + salle dédiée)","Address":"73 rue de la République, 31800 SAINT-GAUDENS","Phone":"","ATT":"Blandine CHOPIN","TMS":"TMS 31","Statut":"Ouverture en cours","Latitude":"43.1085953","Longitude":"0.7259517999999999","Type":"CPTS"},{"Name":"KORIAN PERIER","Address":"3 Rue du Rhône, Marseille, France","Phone":"0496102030","ATT":"Alexandra Malartre","TMS":"TMS ESMS (cabinet virtuel)","Statut":"Ouverture en cours","Latitude":"43.2795992","Longitude":"5.3816406","Type":"ESMS"},{"Name":"KORIAN CLAIRIERES AUX CHENES","Address":"6 Place du Centre, Chasseneuil-du-Poitou, France","Phone":"0549623500","ATT":"Alexandra Malartre","TMS":"TMS ESMS (cabinet virtuel)","Statut":"Ouverture en cours","Latitude":"46.6511499","Longitude":"0.3747077","Type":"ESMS"},{"Name":"KORIAN LES TROIS CHEMINS","Address":"2 Rue de la Gruche, Les Trois-Moutiers, France","Phone":"0549224000","ATT":"Alexandra Malartre","TMS":"TMS ESMS (cabinet virtuel)","Statut":"Ouverture en cours","Latitude":"47.06407069999999","Longitude":"0.018637","Type":"ESMS"},{"Name":"KORIAN LES GRANDS CRUS","Address":"46 Boulevard Henri Bazin 21000 DIJON","Phone":"0380547700","ATT":"Alexandra Malartre","TMS":"TMS ESMS (cabinet virtuel)","Statut":"Ouverture en cours","Latitude":"47.299944","Longitude":"5.0193328","Type":"ESMS"},{"Name":"KORIAN LE LAC","Address":"17 Av. du Lac, 70000 Vaivre-et-Montoille, France","Phone":"0384962892","ATT":"Alexandra Malartre","TMS":"TMS ESMS (cabinet virtuel)","Statut":"Ouverture en cours","Latitude":"47.63551340000001","Longitude":"6.104989499999999","Type":"ESMS"},{"Name":"EHPAD LA SAPINIERE","Address":"1 ALLEE HENRIOT DU COUDRAY 55000 BAR LE DUC","Phone":"","ATT":"Vera Bernard","TMS":"TMS 55","Statut":"Ouverture en cours","Latitude":"48.7811597","Longitude":"5.1732379","Type":"ESMS"},{"Name":"KORIAN PLAISANCE","Address":"12 Boulevard 21E Régiment Aviation, Nancy, France","Phone":"0383308150","ATT":"Vera Bernard","TMS":"TMS 54","Statut":"Ouverture en cours","Latitude":"48.69293649999999","Longitude":"6.192179899999999","Type":"ESMS"},{"Name":"KORIAN DROME PROVENCALE","Address":"15 Avenue du Midi, Charols, France","Phone":"0475904050","ATT":"Alexandra Malartre","TMS":"TMS ESMS (cabinet virtuel)","Statut":"Ouverture en cours","Latitude":"44.5913439","Longitude":"4.9521519","Type":"ESMS"},{"Name":"KORIAN CHAMPS DE MARS","Address":"64 Rue de la Fédération, Paris, France","Phone":"0156583333","ATT":"Alexandra Malartre","TMS":"TMS ESMS (cabinet virtuel)","Statut":"Ouverture en cours","Latitude":"48.8532695","Longitude":"2.2957767","Type":"ESMS"},{"Name":"KORIAN VILLA BONTEMPS","Address":"257 Route de Toulouse, 33400 Talence, France","Phone":"0556844949","ATT":"Alexandra Malartre","TMS":"TMS ESMS (cabinet virtuel)","Statut":"Ouverture en cours","Latitude":"44.8059372","Longitude":"-0.5739681999999999","Type":"ESMS"},{"Name":"KORIAN SAMAROBRIVA","Address":"30 Rue Saint-Germain, 80000 Amiens, France","Phone":"0322222600","ATT":"Alexandra Malartre","TMS":"TMS ESMS (cabinet virtuel)","Statut":"Ouverture en cours","Latitude":"49.89672179999999","Longitude":"2.2950229","Type":"ESMS"},{"Name":"KORIAN VILLA DES CEBRADES","Address":"Ehpad Korian Villa des Cébrades, 1 Rue de la Mairie, 24660 Sanilhac, France","Phone":"0553354047","ATT":"Alexandra Malartre","TMS":"TMS ESMS (cabinet virtuel)","Statut":"Ouverture en cours","Latitude":"45.1756462","Longitude":"0.7253480999999999","Type":"ESMS"},{"Name":"KORIAN L'IMPERIAL","Address":"8 Rue de Mantes, 92700 Colombes, France","Phone":"0156835656","ATT":"Alexandra Malartre","TMS":"TMS ESMS (cabinet virtuel)","Statut":"Ouverture en cours","Latitude":"48.9092444","Longitude":"2.2330897","Type":"ESMS"},{"Name":"CRT / EHPAD Colisée Le Domaine à SOULAINES - D'HUYS","Address":"2 RUE DE LA VERRIERE 10200 SOULAINES DHUYS","Phone":"0325276400","ATT":"Aurelie HUGOT-JEANNARD","TMS":"TMS 10","Statut":"Ouverture en cours","Latitude":"48.3743998","Longitude":"4.7362724","Type":"ESMS"},{"Name":"KORIAN LE FLORE","Address":"8 Rue René Cassin, Montgeron, France","Phone":"0169834590","ATT":"Alexandra Malartre","TMS":"TMS ESMS (cabinet virtuel)","Statut":"Ouverture en cours","Latitude":"48.7009254","Longitude":"2.4645262","Type":"ESMS"},{"Name":"KORIAN LE DOYENNE DE LANGON","Address":"91 Cours du Mal de Lattre Tassigny, Langon, France","Phone":"0557982790","ATT":"Alexandra Malartre","TMS":"TMS ESMS (cabinet virtuel)","Statut":"Ouverture en cours","Latitude":"44.54620269999999","Longitude":"-0.2445769","Type":"ESMS"},{"Name":"EHPAD Colisée La Résidence Le Haut du Bois","Address":"23 Avenue du Général de Gaulle, Jarville-la-Malgrange, France","Phone":"0383533996","ATT":"Vera Bernard","TMS":"TMS 54","Statut":"Ouverture en cours","Latitude":"48.65905129999999","Longitude":"6.206851500000001","Type":"ESMS"},{"Name":"IDEL fixe Montceau-les-Mines","Address":"6 Rue Anatole France, 71300 Montceau-les-Mines, France","Phone":"","ATT":"Aurelie HUGOT-JEANNARD","TMS":"TMS 10","Statut":"Ouverture en cours","Latitude":"46.6902661","Longitude":"4.3512616","Type":"Cabinet Infirmier"},{"Name":"KORIAN LES SARMENTS","Address":"36 Rue Carnot, Suresnes, France","Phone":"0141381500","ATT":"Alexandra Malartre","TMS":"TMS ESMS (cabinet virtuel)","Statut":"Ouverture en cours","Latitude":"48.8727139","Longitude":"2.2261987","Type":"ESMS"},{"Name":"Centre Médical Rieux-Minervois","Address":"41 Avenue du 24 Août 1944, Rieux-Minervois, France","Phone":"0767556048","ATT":"Blandine CHOPIN","TMS":"TMS 31","Statut":"Ouverture en cours","Latitude":"43.28224609999999","Longitude":"2.5887401","Type":"CDS/MSP/CM"},{"Name":"EHPAD Saint Joseph ANRAS - Ossun","Address":"23 Rue Joseph Mérillon, Ossun, France","Phone":"0562326991","ATT":"Blandine CHOPIN","TMS":"TMS 31","Statut":"Ouverture en cours","Latitude":"43.1878981","Longitude":"-0.0272394","Type":"ESMS"},{"Name":"EHPAD L'oustal de Talairan","Address":"1 Chemin de Saint-Vincent, 11220 Talairan, France","Phone":"0468756060","ATT":"Blandine CHOPIN","TMS":"TMS 11","Statut":"Ouverture en cours","Latitude":"43.047339","Longitude":"2.660092","Type":"ESMS"},{"Name":"Mairie de Chauffour Notre Dame","Address":"","Phone":"","ATT":"Mélanie Chevé","TMS":"TMS 72","Statut":"Ouverture en cours","Latitude":null,"Longitude":null,"Type":"CPTS"},{"Name":"EHPAD les Glycines - Mussy-sur-Seine","Address":"6 Rue Gambetta, 10250 Mussy-sur-Seine","Phone":"0325384110","ATT":"Aurelie HUGOT-JEANNARD","TMS":"TMS 10","Statut":"Ouverture en cours","Latitude":"47.9801018","Longitude":"4.4977447","Type":"ESMS"},{"Name":"239 - EMEIS Résidence La Clairière - Montelimar","Address":"14 Bis Imp. Jean de Saint-Prix, 26200 Montélimar, France","Phone":"0475004500","ATT":"Alexandra Malartre","TMS":"TMS ESMS Emeis","Statut":"Ouverture en cours","Latitude":"44.55217500000001","Longitude":"4.762436999999999","Type":"ESMS"},{"Name":"489-Parignargues-Notre-dame","Address":"30730 Parignargues, France","Phone":"0466027880","ATT":"Alexandra Malartre","TMS":"TMS ESMS (cabinet virtuel)","Statut":"Ouverture en cours","Latitude":"43.872952","Longitude":"4.207216","Type":"ESMS"},{"Name":"EMEIS Résidence Bellevue","Address":"50 Rue de Paris, 95400 Villiers-le-Bel, France","Phone":"0139909275","ATT":"Alexandra Malartre","TMS":"TMS ESMS Emeis","Statut":"Ouverture en cours","Latitude":"49.0063545","Longitude":"2.3842946","Type":"ESMS"},{"Name":"Mairie de POUILLOUX","Address":"2 Rue de la Mairie, 71230 Pouilloux, France","Phone":"","ATT":"Aurelie HUGOT-JEANNARD","TMS":"TMS 10","Statut":"Ouverture en cours","Latitude":"46.6069053","Longitude":"4.3610426","Type":"CPTS"},{"Name":"046-EMEIS Résidence LES DORNETS","Address":"1 HAMEAU DES DORNETS 89150 SAVIGNY SUR CLAIRIS","Phone":"0386864248","ATT":"Aurelie HUGOT-JEANNARD","TMS":"TMS 10","Statut":"Ouvertes","Latitude":"48.0649774","Longitude":"3.0937089","Type":"ESMS"},{"Name":"061-EMEIS Résidence LES CÈDRES","Address":"63  MAIL RICHELIEU 89100 PARON","Phone":"0386952333","ATT":"Aurelie HUGOT-JEANNARD","TMS":"TMS 10","Statut":"Ouvertes","Latitude":"48.1913885","Longitude":"3.2553382","Type":"ESMS"},{"Name":"149-EMEIS Résidence LES BERGES DU CANAL","Address":"78 ROUTE MINERVOISE 11022 CARCASSONNE CEDEX","Phone":"0468777500","ATT":"Blandine CHOPIN","TMS":"TMS 11","Statut":"Ouvertes","Latitude":"43.2201608","Longitude":"2.3555044","Type":"ESMS"},{"Name":"243-EMEIS Résidence LES MONTS D'AURELLE","Address":"PARC EUROMEDECINE 1632 RUE ST PRIEST 34097 MONTPELLIER CEDEX 5","Phone":"","ATT":"Aurelie HUGOT-JEANNARD","TMS":"TMS 10","Statut":"Ouvertes","Latitude":"43.63795289999999","Longitude":"3.8338377","Type":"ESMS"},{"Name":"335-EMEIS Résidence LE SAULE","Address":"2 RUE DE BELFORT 89000 AUXERRE","Phone":"0386319800","ATT":"Aurelie HUGOT-JEANNARD","TMS":"TMS 10","Statut":"Ouvertes","Latitude":"47.8012692","Longitude":"3.5656131","Type":"ESMS"},{"Name":"383-EMEIS Résidence LÉON BRACONNIER","Address":"293 AVENUE ALBERT CAMUS 08500 REVIN","Phone":"","ATT":"Aurelie HUGOT-JEANNARD","TMS":"TMS 10","Statut":"Ouvertes","Latitude":"49.9356257","Longitude":"4.646059699999999","Type":"ESMS"},{"Name":"472-EMEIS Résidence SAINTE ANNE","Address":"9 RUE DE BELFORT 68990 HEIMSBRUNN","Phone":"0389286282","ATT":"Aurelie HUGOT-JEANNARD","TMS":"TMS 10","Statut":"Ouvertes","Latitude":"47.72786","Longitude":"7.2235503","Type":"ESMS"},{"Name":"CAB FIXE IDEL SANVIGNES LES MINES","Address":"7 Rue Léo Lagrange, Sanvignes-les-Mines, France","Phone":"","ATT":"Aurelie HUGOT-JEANNARD","TMS":"TMS 10","Statut":"Ouvertes","Latitude":"46.6649733","Longitude":"4.2974438","Type":"Cabinet Infirmier"},{"Name":"PHARMARCIE FERRAND - SOUESMES","Address":"8 ROUTE PIERREFITTE 41300 SOUESMES","Phone":"0254988264","ATT":"Cécile ABA'ANE","TMS":"TMS 18","Statut":"Ouvertes","Latitude":"47.4583367","Longitude":"2.1800837","Type":"Pharmacie"},{"Name":"MSP COEUR DE FRANCE ST AMAND","Address":"1 Rue de la Tuilerie, 18200 Saint-Amand-Montrond, France","Phone":"0248820057","ATT":"Cécile ABA'ANE","TMS":"TMS 18","Statut":"Ouvertes","Latitude":"46.7248008","Longitude":"2.4984281","Type":"CDS/MSP/CM"},{"Name":"CAB IDEL COUSANCES-LES-FORGES VALERIE BOUCHOT","Address":"8C RUE DU CHATEAU 55170 COUSANCES LES FORGES","Phone":"","ATT":"Vera Bernard","TMS":"TMS 55","Statut":"Ouvertes","Latitude":"48.609642","Longitude":"5.0799255","Type":"Cabinet Infirmier"},{"Name":"IDELS DOMICILES CPTS SUD CHER","Address":"18200 ST AMAND MONTROND","Phone":"0248820057","ATT":"Cécile ABA'ANE","TMS":"TMS 18","Statut":"Ouvertes","Latitude":"46.7250528","Longitude":"2.5065288","Type":"Cabinet Infirmier"},{"Name":"CAB IDEL DU CHÂTELET","Address":"1 Av. de la Gare, 18170 Le Châtelet, France","Phone":"0698014824","ATT":"Cécile ABA'ANE","TMS":"TMS 18","Statut":"Ouvertes","Latitude":"46.644907","Longitude":"2.2777935","Type":"Cabinet Infirmier"},{"Name":"CAB IDEL VEAUGUES","Address":"6 Rue du 8 Mai, 18300 Veaugues, France","Phone":"0608706746","ATT":"Cécile ABA'ANE","TMS":"TMS 18","Statut":"Ouvertes","Latitude":"47.2576514","Longitude":"2.756835","Type":"Cabinet Infirmier"},{"Name":"CAB IDEL CHATEAUMEILLANT","Address":"5 RUE BAZANNERIE 18370 CHATEAUMEILLANT","Phone":"0248613780","ATT":"Cécile ABA'ANE","TMS":"TMS 18","Statut":"Ouvertes","Latitude":"46.5592027","Longitude":"2.1940768","Type":"Cabinet Infirmier"},{"Name":"CENTRE DE SANTÉ MÉDECINS SOLIDAIRES - Charenton du Cher","Address":"4 Rue Neuve, 18210 Charenton-du-Cher, France","Phone":"0248615540","ATT":"Cécile ABA'ANE","TMS":"TMS 18","Statut":"Ouvertes","Latitude":"46.73117449999999","Longitude":"2.6397286","Type":"CDS/MSP/CM"},{"Name":"EHPAD VIVALTO PORTES DE SOLOGNE","Address":"7 RUE PIERRE DEBOURNOU 18100 VIERZON","Phone":"33248750405","ATT":"Cécile ABA'ANE","TMS":"TMS 18","Statut":"Ouvertes","Latitude":"47.2232911","Longitude":"2.0624887","Type":"ESMS"},{"Name":"CAB IDEL VIERZON FORGES (Mallette 02 CPTS BVS)","Address":"2 Route de Bourges, Vierzon, France","Phone":"0608585176","ATT":"Cécile ABA'ANE","TMS":"TMS 18","Statut":"Ouvertes","Latitude":"47.2151575","Longitude":"2.1082406","Type":"Cabinet Infirmier"},{"Name":"CAB IDEL Vierzon BART/LAURENT... (Mallette 04 CPTS BVS)","Address":"5 RUE PIERRE DEBOURNOU 18100 VIERZON","Phone":"","ATT":"Cécile ABA'ANE","TMS":"TMS 18","Statut":"Ouvertes","Latitude":"47.222669","Longitude":"2.0621816","Type":"Cabinet Infirmier"},{"Name":"CAB IDEL ST GEORGES SUR LE PREE (Mallette 13 CPTS BVS)","Address":"6 PLACE DES TILLEULS 18100 ST GEORGES SUR LA PREE","Phone":"","ATT":"Cécile ABA'ANE","TMS":"TMS 18","Statut":"Ouvertes","Latitude":"47.225694","Longitude":"1.938098","Type":"Cabinet Infirmier"},{"Name":"CAB IDEL SANCERGUES","Address":"2 RUE PAULINE LAPAUTRE 18140 SANCERGUES","Phone":"0248727140","ATT":"Cécile ABA'ANE","TMS":"TMS 18","Statut":"Ouvertes","Latitude":"47.156942","Longitude":"2.916774","Type":"Cabinet Infirmier"},{"Name":"CAB IDEL JOUET SUR L'AUBOIS","Address":"23 GRANDE RUE 18320 JOUET SUR L AUBOIS","Phone":"","ATT":"Cécile ABA'ANE","TMS":"TMS 18","Statut":"Ouvertes","Latitude":"47.046119","Longitude":"2.987662","Type":"Cabinet Infirmier"},{"Name":"CAB IDEL NEUILLY EN SANCERRE","Address":"121 ROUTE DE SANCERRE 18250 NEUILLY EN SANCERRE","Phone":"0248790685","ATT":"Cécile ABA'ANE","TMS":"TMS 18","Statut":"Ouvertes","Latitude":"47.303932","Longitude":"2.687204","Type":"Cabinet Infirmier"},{"Name":"CAB IDEL NOUZONVILLE BREDA GIBARU","Address":"25 RUE DE CHANZY 8700 NOUZONVILLE","Phone":"","ATT":"Vera Bernard","TMS":"TMS 54","Statut":"Ouvertes","Latitude":"49.8164374","Longitude":"4.7432812","Type":"Cabinet Infirmier"},{"Name":"SAS 18 _ Visio Simple","Address":"3 Rue Charles Durand, 18000 Bourges, France","Phone":"0978810038","ATT":"Cécile ABA'ANE","TMS":"TMS 18","Statut":"Ouvertes","Latitude":"47.0617378","Longitude":"2.3642646","Type":"ODYS"},{"Name":"IDELS DOMICILES CPTS ORLEANAISE","Address":"Fleury-les-Aubrais, France","Phone":"0615438659","ATT":"Cécile ABA'ANE","TMS":"TMS 18","Statut":"Ouvertes","Latitude":"47.9339567","Longitude":"1.9169628","Type":"Domicile"},{"Name":"CAB IDEL DE GOURNAY (36)","Address":"7 RUE DE L'AUZON 36230 GOURNAY","Phone":"0766067802","ATT":"Cécile ABA'ANE","TMS":"TMS 18","Statut":"Ouvertes","Latitude":"46.585154","Longitude":"1.732118","Type":"Cabinet Infirmier"},{"Name":"KORIAN LA VALLEE BLEUE","Address":"78 Avenue DE LA REPUBLIQUE 18200 ST AMAND MONTROND","Phone":"0248822100","ATT":"Cécile ABA'ANE","TMS":"TMS 18","Statut":"Ouvertes","Latitude":"46.7306043","Longitude":"2.5108956","Type":"ESMS"},{"Name":"CAB IDEL RIMOGNE VALERIE THIONVILLE/ORIANE RICHARD","Address":"101 Rue François Mitterrand, Rimogne, France","Phone":"","ATT":"Vera Bernard","TMS":"TMS 55","Statut":"Ouvertes","Latitude":"49.8406955","Longitude":"4.538131","Type":"Cabinet Infirmier"},{"Name":"KORIAN VILLA DU PRINTEMPS","Address":"95 Rue CHARLET 18000 BOURGES","Phone":"0248509100","ATT":"Cécile ABA'ANE","TMS":"TMS 18","Statut":"Ouvertes","Latitude":"47.0843","Longitude":"2.415756","Type":"ESMS"},{"Name":"CABINET DE SOINS INFIRMIERS DES HALLES","Address":"5 All. des Frênes, 85540 Saint-Avaugourd-des-Landes","Phone":"0749013402","ATT":"Aurelie HUGOT-JEANNARD","TMS":"TMS 10","Statut":"Ouvertes","Latitude":"46.5126752","Longitude":"-1.4831067","Type":"Cabinet Infirmier"},{"Name":"CABINET IDEL PIENNES (ANNE MARIE LAUNOIS)","Address":"2 RUE DE THARANDT 54490 PIENNES","Phone":"","ATT":"Vera Bernard","TMS":"TMS 55","Statut":"Ouvertes","Latitude":"49.3096975","Longitude":"5.7809038","Type":"Cabinet Infirmier"},{"Name":"CABINET INFIRMIER BIESLES AURELIE MOUILLET","Address":"1 ROUTE DE CHAUMONT 52340 BIESLES","Phone":"","ATT":"Vera Bernard","TMS":"TMS 55","Statut":"Ouvertes","Latitude":"48.08532659999999","Longitude":"5.2948238","Type":"Cabinet Infirmier"},{"Name":"CADA DE LANGRES","Address":"74 RUE LA LIBERTÉ 52200 LANGRES","Phone":"0325902375","ATT":"Aurelie HUGOT-JEANNARD","TMS":"TMS 10","Statut":"Ouvertes","Latitude":"47.86683","Longitude":"5.334297","Type":"Foyer d'accueil"},{"Name":"CENTRE DE SANTÉ CHAPELAIN","Address":"90 RUE GENERAL SARRAIL 10600 LA CHAPELLE ST LUC","Phone":"0325717063","ATT":"Aurelie HUGOT-JEANNARD","TMS":"TMS 10","Statut":"Ouvertes","Latitude":"48.3070294","Longitude":"4.0402951","Type":"CDS/MSP/CM"},{"Name":"CENTRE MUNICIPAL DE SANTÉ DE NOGENT SUR SEINE","Address":"51 AVENUE SAINT ROCH 10400 NOGENT SUR SEINE","Phone":"0325210693","ATT":"Aurelie HUGOT-JEANNARD","TMS":"TMS 10","Statut":"Ouvertes","Latitude":"48.49349","Longitude":"3.511262","Type":"CDS/MSP/CM"},{"Name":"CH St Gaudens","Address":"","Phone":"","ATT":"Blandine CHOPIN","TMS":"TMS 31","Statut":"Ouvertes","Latitude":null,"Longitude":null,"Type":"CDS/MSP/CM"},{"Name":"CIAS/MAISON FRANCE SERVICES LIGNY-EN-BARROIS","Address":"14 RUE DES ÉTATS-UNIS 55500 LIGNY-EN-BARROIS","Phone":"","ATT":"Vera Bernard","TMS":"TMS 55","Statut":"Ouvertes","Latitude":"48.6881067","Longitude":"5.321829900000001","Type":"Salle collectivité"},{"Name":"CPTS - VALLÉE DE LA NIED et Wenheck","Address":"1 RUE BOUCHEPORN 57890 PORCELETTE","Phone":"0355810068","ATT":"Aurelie HUGOT-JEANNARD","TMS":"TMS 10","Statut":"Ouvertes","Latitude":"49.1569898","Longitude":"6.652798700000001","Type":"CPTS"},{"Name":"CPTS MONTCHANIN","Address":"6 AVENUE DE LA LIBÉRATION  71210 MONTCHANIN","Phone":"","ATT":"Aurelie HUGOT-JEANNARD","TMS":"TMS 10","Statut":"Ouvertes","Latitude":"46.7494196","Longitude":"4.470071","Type":"CPTS"},{"Name":"CPTS TCM chariot","Address":"Troyes, France","Phone":"","ATT":"Aurelie HUGOT-JEANNARD","TMS":"TMS 10","Statut":"Ouvertes","Latitude":"48.2975056","Longitude":"4.0746921","Type":"CPTS"},{"Name":"CPTS TCM Valise 2","Address":"Troyes, France","Phone":"","ATT":"Aurelie HUGOT-JEANNARD","TMS":"TMS 10","Statut":"Ouvertes","Latitude":"48.2975056","Longitude":"4.0746921","Type":"CPTS"},{"Name":"CPTS TCM valise 3","Address":"Troyes, France","Phone":"","ATT":"Aurelie HUGOT-JEANNARD","TMS":"TMS 10","Statut":"Ouvertes","Latitude":"48.2975056","Longitude":"4.0746921","Type":"CPTS"},{"Name":"EHPAD BETHANIE ACCUEIL","Address":"27 RUE ERNEST RENAN 11000 CARCASSONNE","Phone":"","ATT":"Blandine CHOPIN","TMS":"TMS 11","Statut":"Ouvertes","Latitude":"43.2143796","Longitude":"2.3381541","Type":"ESMS"},{"Name":"EHPAD COLISÉE  Le Parc du Château VENDEUVRE","Address":"2 RUE DE BEUREY 10140 VENDEUVRE SUR BARSE","Phone":"0325411200","ATT":"Aurelie HUGOT-JEANNARD","TMS":"TMS 10","Statut":"Ouvertes","Latitude":"48.19300459999999","Longitude":"4.4407767","Type":"ESMS"},{"Name":"EHPAD FELIX GRELOT","Address":"6 RUE FÉLIX GRELOT  52800 NOGENT","Phone":"0325020940","ATT":"Aurelie HUGOT-JEANNARD","TMS":"TMS 10","Statut":"Ouvertes","Latitude":"48.0265865","Longitude":"5.3477694","Type":"ESMS"},{"Name":"EHPAD LA BELLE VERRIÈRE","Address":"18 RUE DE LA TUILERIE 10310 BAYEL","Phone":"0325920237","ATT":"Aurelie HUGOT-JEANNARD","TMS":"TMS 10","Statut":"Ouvertes","Latitude":"48.1992351","Longitude":"4.7752572","Type":"ESMS"},{"Name":"KORIAN LE BARON","Address":"61 Rue DU FAUBOURG MADELEINE 45000 ORLEANS","Phone":"0238425252","ATT":"Cécile ABA'ANE","TMS":"TMS 18","Statut":"Ouvertes","Latitude":"47.89893","Longitude":"1.8855724","Type":"ESMS"},{"Name":"KORIAN LA REINE BLANCHE","Address":"851 Rue DE LA VALLEE 45160 OLIVET","Phone":"0238664051","ATT":"Cécile ABA'ANE","TMS":"TMS 18","Statut":"Ouvertes","Latitude":"47.8611716","Longitude":"1.8849979","Type":"ESMS"},{"Name":"KORIAN CLOS DU MURIER","Address":"3 Rue des Roncières 37230 FONDETTES","Phone":"0247362727","ATT":"Cécile ABA'ANE","TMS":"TMS 18","Statut":"Ouvertes","Latitude":"47.403709","Longitude":"0.611767","Type":"ESMS"},{"Name":"KORIAN SAINT-FRANÇOIS DU LAS","Address":"816, RUE DAVID 83200 TOULON","Phone":"0498070202","ATT":"Alexandra Malartre","TMS":"TMS ESMS (cabinet virtuel)","Statut":"Ouvertes","Latitude":"43.1399295","Longitude":"5.885475899999999","Type":"ESMS"},{"Name":"EHPAD LA FERME DU MARAIS À LE MÉE-SUR-SEINE","Address":"565 AVENUE MARCHÉ MARAIS LE MÉE-SUR-SEINE","Phone":"","ATT":"Aurelie HUGOT-JEANNARD","TMS":"TMS 10","Statut":"Ouvertes","Latitude":"48.5481085","Longitude":"2.6386656","Type":"ESMS"},{"Name":"KORIAN RIVES D'ESTEREL","Address":"301 AVENUE ANDREÏ SAKHAROV 83600 FREJUS","Phone":"0494517220","ATT":"Alexandra Malartre","TMS":"TMS ESMS (cabinet virtuel)","Statut":"Ouvertes","Latitude":"43.4404112","Longitude":"6.740318900000001","Type":"ESMS"},{"Name":"KORIAN LA PROVENÇALE","Address":"34, RUE DU MOULIN 83136 LA ROQUEBRUSSANNE","Phone":"0494869686","ATT":"Alexandra Malartre","TMS":"TMS ESMS (cabinet virtuel)","Statut":"Ouvertes","Latitude":"43.3417997","Longitude":"5.9693993","Type":"ESMS"},{"Name":"EHPAD LA REPOSANCE (Résidents)","Address":"43 Rue du Cantal, 72100 Le Mans, France","Phone":"0243842771","ATT":"Mélanie Chevé","TMS":"TMS 72","Statut":"Ouvertes","Latitude":"47.9940726","Longitude":"0.2208863","Type":"ESMS"},{"Name":"KORIAN AUBIER DE CYBÈLE","Address":"115 VIA AURELIA 83600 FREJUS","Phone":"0494449000","ATT":"Alexandra Malartre","TMS":"TMS ESMS (cabinet virtuel)","Statut":"Ouvertes","Latitude":"43.46175","Longitude":"6.7669409","Type":"ESMS"},{"Name":"KORIAN LE ROSAIRE","Address":"335, CHEMIN DU ROSAIRE 83110 SANARY SUR MER","Phone":"0494253050","ATT":"Alexandra Malartre","TMS":"TMS ESMS (cabinet virtuel)","Statut":"Ouvertes","Latitude":"43.1182026","Longitude":"5.789082899999999","Type":"ESMS"},{"Name":"EHPAD LE SOLEIL LEVANT","Address":"RUE LOU CIGAL 11300 LIMOUX","Phone":"","ATT":"Blandine CHOPIN","TMS":"TMS 11","Statut":"Ouvertes","Latitude":"43.064697","Longitude":"2.2085099","Type":"ESMS"},{"Name":"377 - EMEIS Résidence VICTORIA","Address":"83190 Rue des 2 Frères, France","Phone":"0494029100","ATT":"Alexandra Malartre","TMS":"TMS ESMS Emeis","Statut":"Ouvertes","Latitude":"44.3968415","Longitude":"-1.1663721","Type":"ESMS"},{"Name":"EHPAD LES MYOSOTIS DE BOURMONT","Address":"3 RUE DU STADE 52150 BOURMONT ENTRE MEUSE ET MO","Phone":"","ATT":"Vera Bernard","TMS":"TMS 55","Statut":"Ouvertes","Latitude":"48.2002936","Longitude":"5.587314699999999","Type":"ESMS"},{"Name":"EHPAD MAISON DE L'ORME DORÉ","Address":"2 RUE ANDRÉ BARBAUX 52100 SAINT DIZIER","Phone":"0325043800","ATT":"Aurelie HUGOT-JEANNARD","TMS":"TMS 10","Statut":"Ouvertes","Latitude":"48.6446772","Longitude":"4.9647859","Type":"ESMS"},{"Name":"EHPAD NOTRE MAISON","Address":"4 Pl. de Cincinnati, 54000 Nancy, France","Phone":"0383329552","ATT":"Vera Bernard","TMS":"TMS 54","Statut":"Ouvertes","Latitude":"48.69147299999999","Longitude":"6.199346999999999","Type":"ESMS"},{"Name":"EHPAD SANS SOUCI et  IDEL CPTS VALLÉE DE LA NIED","Address":"1 RUE BOUCHEPORN 57891 PORCELETTE","Phone":"0355810068","ATT":"Aurelie HUGOT-JEANNARD","TMS":"TMS 10","Statut":"Ouvertes","Latitude":"49.15679799999999","Longitude":"6.653251699999999","Type":"ESMS"},{"Name":"EHPAD VIVALTO RÉSIDENCE TAMIAS Ã  QUINCY SOUS SÉNART","Address":"18 ROUTE DE BOUSSY-SAINT-ANTOINE 91480 QUINCY SOUS SÉNART","Phone":"","ATT":"Aurelie HUGOT-JEANNARD","TMS":"TMS 10","Statut":"Ouvertes","Latitude":"48.6801088","Longitude":"2.5375999","Type":"ESMS"},{"Name":"246 - EMEIS Résidence LE VIGE","Address":"5 Rue du Maréchal Juin, Soubise, France","Phone":"0546835500","ATT":"Alexandra Malartre","TMS":"TMS ESMS Emeis","Statut":"Ouvertes","Latitude":"45.9236097","Longitude":"-1.0114299","Type":"ESMS"},{"Name":"3 - EMEIS Résidence SUD SAINTONGE","Address":"24 Route des Écluses, 17600 Saujon, France","Phone":"0546022299","ATT":"Alexandra Malartre","TMS":"TMS ESMS Emeis","Statut":"Ouvertes","Latitude":"45.6763726","Longitude":"-0.9319459000000001","Type":"ESMS"},{"Name":"EPVS - HAMJAGO","Address":"14 AVENUE STADE  97600 MAYOTTE","Phone":"0269636106","ATT":"Aurelie HUGOT-JEANNARD","TMS":"TMS 10","Statut":"Ouvertes","Latitude":"-12.779684","Longitude":"45.1962533","Type":"CDS/MSP/CM"},{"Name":"ESP VILLERUPT","Address":"2 RUE ERCKMANN-CHATRIAN 54190 VILLERUPT","Phone":"","ATT":"Vera Bernard","TMS":"TMS 55","Statut":"Ouvertes","Latitude":"49.460853","Longitude":"5.937963","Type":"CDS/MSP/CM"},{"Name":"FOYER D'ACCUEIL LES LACS D'ORIENT","Address":"9 RUE MAISONS BRÛLÉEES 10270 LUSIGNY SUR BARSE","Phone":"0325407102","ATT":"Aurelie HUGOT-JEANNARD","TMS":"TMS 10","Statut":"Ouvertes","Latitude":"48.2516626","Longitude":"4.264917899999999","Type":"Foyer d'accueil"},{"Name":"FOYER D'ACCUEIL MEDICALISE BOIS L'ABBESSE","Address":"CHEMIN DE L'ARGENTÉ LIGNE 52100 SAINT DIZIER","Phone":"0325064218","ATT":"Aurelie HUGOT-JEANNARD","TMS":"TMS 10","Statut":"Ouvertes","Latitude":"48.6207013","Longitude":"4.9531389","Type":"Foyer d'accueil"},{"Name":"FOYER D'ACCUEIL hébergement ULYSSE - BOIS L'ABBESSE","Address":"CHEMIN DE L'ARGENTÉ LIGNE 52100 SAINT DIZIER","Phone":"0325064218","ATT":"Aurelie HUGOT-JEANNARD","TMS":"TMS 10","Statut":"Ouvertes","Latitude":"48.6207013","Longitude":"4.9531389","Type":"Foyer d'accueil"},{"Name":"IDEL - VILLEGUSIEN LE LAC","Address":"10 RUE DES BARTS 52190 VILLEGUSIEN LE LAC","Phone":"0325901491","ATT":"Aurelie HUGOT-JEANNARD","TMS":"TMS 10","Statut":"Ouvertes","Latitude":"47.7377535","Longitude":"5.3242797","Type":"Cabinet Infirmier"},{"Name":"IDEL À CH SEDAN CPTS PORTES DU Luxembourg","Address":"AVENUE DU GÉNÉRAL MARGUERITTE 08200 SEDAN","Phone":"","ATT":"Vera Bernard","TMS":"TMS 55","Statut":"Ouvertes","Latitude":"49.706683","Longitude":"4.938009","Type":"Cabinet Infirmier"},{"Name":"IDEL BIESLES ODYS","Address":"Biesles, France","Phone":"","ATT":"Vera Bernard","TMS":"TMS 55","Statut":"Ouvertes","Latitude":"48.086188","Longitude":"5.294984899999999","Type":"ODYS"},{"Name":"IDEL DOMICILE MONTMÉDY SANDRINE BRADFER","Address":"1 RUE DU LUXEMBOURG 55600 MONTMEDY","Phone":"","ATT":"Vera Bernard","TMS":"TMS 55","Statut":"Ouvertes","Latitude":"49.5203754","Longitude":"5.366941499999999","Type":"Cabinet Infirmier"},{"Name":"IDEL Jessica Tesson- Châtillon-sur-Seine","Address":"17 Rue des Prés, 21400 Châtillon-sur-Seine, France","Phone":"0682680730","ATT":"Aurelie HUGOT-JEANNARD","TMS":"TMS 10","Statut":"Ouvertes","Latitude":"47.8544743","Longitude":"4.5666529","Type":"Cabinet Infirmier"},{"Name":"IDEL LECARDONNEL","Address":"1 rue de la Trinité, 10800 LES BORDES-AUMONT","Phone":"0664244228","ATT":"Aurelie HUGOT-JEANNARD","TMS":"TMS 10","Statut":"Ouvertes","Latitude":"48.1837418","Longitude":"4.1224754","Type":"Cabinet Infirmier"},{"Name":"IDEL LEPEZ DE LAIGNES","Address":"7 GRAND RUE MAISON DIEU 21330 LAIGNES","Phone":"0680837430","ATT":"Aurelie HUGOT-JEANNARD","TMS":"TMS 10","Statut":"Ouvertes","Latitude":"47.8423848","Longitude":"4.3649203","Type":"Cabinet Infirmier"},{"Name":"IDEL LESAGE ALEXANDRA","Address":"Rue de Bellevue, 85460 L'Aiguillon-la-Presqu'île, France","Phone":"0619569693","ATT":"Aurelie HUGOT-JEANNARD","TMS":"TMS 10","Statut":"Ouvertes","Latitude":"46.3387709","Longitude":"-1.3182673","Type":"Cabinet Infirmier"},{"Name":"IDEL MME BORDES","Address":"17 Avenue Jacques Simon, 51470 Saint-Memmie, France","Phone":"0673823018","ATT":"Aurelie HUGOT-JEANNARD","TMS":"TMS 10","Statut":"Ouvertes","Latitude":"48.9541566","Longitude":"4.3794493","Type":"Cabinet Infirmier"},{"Name":"IDEL PERTHES","Address":"Place de l'Église, 52100 Perthes, France","Phone":"","ATT":"Vera Bernard","TMS":"TMS 55","Statut":"Ouvertes","Latitude":"48.656618","Longitude":"4.823116","Type":"Cabinet Infirmier"},{"Name":"IDELS Domicile MONTCHANIN","Address":"6 AVENUE DE LA LIBÉRATION  71210 MONTCHANIN","Phone":"","ATT":"Aurelie HUGOT-JEANNARD","TMS":"TMS 10","Statut":"Ouvertes","Latitude":"46.7494196","Longitude":"4.470071","Type":"Domicile"},{"Name":"IDELS Domicile SANVIGNES LES MINES","Address":"7 Rue Léo Lagrange, Sanvignes-les-Mines, France","Phone":"","ATT":"Aurelie HUGOT-JEANNARD","TMS":"TMS 10","Statut":"Ouvertes","Latitude":"46.6649733","Longitude":"4.2974438","Type":"Domicile"},{"Name":"IDELS Résidence & Domicile MONTCEAU-LES-MINES","Address":"Résidence Senior 18 rue du Dr J.F POROT 71300 Montceau les Mines","Phone":"","ATT":"Aurelie HUGOT-JEANNARD","TMS":"TMS 10","Statut":"Ouvertes","Latitude":"46.67413","Longitude":"4.362979","Type":"Cabinet Infirmier"},{"Name":"IDELS Résidence & Domicile SAINT BERAIN SOUS SANVIGNES","Address":"Résidence des Trois Chênes, Impasse du 19 Mars 1962, Saint-Berain-sous-Sanvignes, France","Phone":"","ATT":"Aurelie HUGOT-JEANNARD","TMS":"TMS 10","Statut":"Ouvertes","Latitude":"46.706604","Longitude":"4.2960009","Type":"Cabinet Infirmier"},{"Name":"KORIAN MARIE D'ALBRET","Address":"47, RUE EMILE COMBES 17800 PONS","Phone":"0546961950","ATT":"Alexandra Malartre","TMS":"TMS ESMS (cabinet virtuel)","Statut":"Ouvertes","Latitude":"45.5769289","Longitude":"-0.5489347","Type":"ESMS"},{"Name":"IDELS Salle OPAC + Domicile CREUSOT","Address":"71200 Le Creusot, France","Phone":"","ATT":"Aurelie HUGOT-JEANNARD","TMS":"TMS 10","Statut":"Ouvertes","Latitude":"46.80535099999999","Longitude":"4.4278","Type":"Cabinet Infirmier"},{"Name":"IME - VAL DE SUIZE","Address":" RUE QUELLEMELE 52000 CHAUMONT","Phone":"0325320473","ATT":"Aurelie HUGOT-JEANNARD","TMS":"TMS 10","Statut":"Ouvertes","Latitude":"48.0797817","Longitude":"5.1395234","Type":"Foyer d'accueil"},{"Name":"INNOV'SANTE DAMIGNY","Address":"POLE UNIVERSITAIRE, 61250, DAMIGNY","Phone":"0230323600","ATT":"Pichard Jean-Baptiste","TMS":"TMS 14","Statut":"Ouvertes","Latitude":"48.44563309999999","Longitude":"0.057979","Type":"CDS/MSP/CM"},{"Name":"KORIAN ARTEMIS","Address":"8 Avenue JEAN JAURES 72560 CHANGE","Phone":"0243406767","ATT":"Mélanie Chevé","TMS":"TMS 72","Statut":"Ouvertes","Latitude":"47.98494530000001","Longitude":"0.2826073","Type":"ESMS"},{"Name":"KORIAN AU FIL DU TEMPS","Address":"2 Rue de Condé, 77100 Meaux","Phone":"0160251009","ATT":"Alexandra Malartre","TMS":"TMS ESMS (cabinet virtuel)","Statut":"Ouvertes","Latitude":"48.9544189","Longitude":"2.8761506","Type":"ESMS"},{"Name":"KORIAN BELLEVUE","Address":"9 RUE BELLEVUE 47120 DURAS","Phone":"0553940505","ATT":"Blandine CHOPIN","TMS":"TMS 31","Statut":"Ouvertes","Latitude":"44.6755523","Longitude":"0.1912474","Type":"ESMS"},{"Name":"KORIAN BOIS ROBILLARD","Address":"35 Rue Bois Robillard, 44300 Nantes","Phone":"0251894000","ATT":"Alexandra Malartre","TMS":"TMS ESMS (cabinet virtuel)","Statut":"Ouvertes","Latitude":"47.2369156","Longitude":"-1.5171088","Type":"ESMS"},{"Name":"KORIAN BOLLEE CHANZY","Address":"3 Rue CHANZY 72000 LE MANS","Phone":"0243503510","ATT":"Mélanie Chevé","TMS":"TMS 72","Statut":"Ouvertes","Latitude":"48.0038841","Longitude":"0.2020536","Type":"ESMS"},{"Name":"KORIAN MANDOLINE","Address":"7 Rue Georges Irat, 78400 Chatou","Phone":"0134802500","ATT":"Alexandra Malartre","TMS":"TMS ESMS (cabinet virtuel)","Statut":"Ouvertes","Latitude":"48.8972007","Longitude":"2.1495452","Type":"ESMS"},{"Name":"KORIAN CATALOGNE","Address":"18 Cr Lazare Escarguel, 66000 Perpignan","Phone":"0468351500","ATT":"Blandine CHOPIN","TMS":"TMS 11","Statut":"Ouvertes","Latitude":"42.6987883","Longitude":"2.8867892","Type":"ESMS"},{"Name":"KORIAN CHATEAU DE LA COULDRE","Address":"2 bis Av. des Ⅳ Pavés du Roy, 78180 Montigny-le-Bretonneux","Phone":"0130482520","ATT":"Alexandra Malartre","TMS":"TMS ESMS (cabinet virtuel)","Statut":"Ouvertes","Latitude":"48.7711283","Longitude":"2.0237225","Type":"ESMS"},{"Name":"KORIAN CHATEAU DE LORMOY","Address":"47 Rue de Lormoy, 91310 Longpont-sur-Orge","Phone":"0169802424","ATT":"Alexandra Malartre","TMS":"TMS ESMS (cabinet virtuel)","Statut":"Ouvertes","Latitude":"48.6365103","Longitude":"2.2905766","Type":"ESMS"},{"Name":"KORIAN CLAUDE BERNARD","Address":"22 GRAND RUE, 69600, OULLINS","Phone":"0472000169","ATT":"Alexandra Malartre","TMS":"TMS ESMS (cabinet virtuel)","Statut":"Ouvertes","Latitude":"45.7204546","Longitude":"4.8088611","Type":"ESMS"},{"Name":"KORIAN CLOS SERENA","Address":"1 RUE JEAN RENAUD DANDICOLLE  33000 BORDEAUX","Phone":"0556994343","ATT":"Alexandra Malartre","TMS":"TMS ESMS (cabinet virtuel)","Statut":"Ouvertes","Latitude":"44.8333784","Longitude":"-0.5853783","Type":"ESMS"},{"Name":"KORIAN COEUR VOLANT","Address":"19 Chem. du Cœur Volant, 78430 Louveciennes","Phone":"0130829999","ATT":"Alexandra Malartre","TMS":"TMS ESMS (cabinet virtuel)","Statut":"Ouvertes","Latitude":"48.8656243","Longitude":"2.1076194","Type":"ESMS"},{"Name":"KORIAN DOMAINE DE COLLONGUE","Address":"300, CHEMIN DE COLLONGUE 13100 SAINT MARC JAUMEGARDE","Phone":"0442167650","ATT":"Alexandra Malartre","TMS":"TMS ESMS (cabinet virtuel)","Statut":"Ouvertes","Latitude":"43.5422227","Longitude":"5.4961106","Type":"ESMS"},{"Name":"KORIAN FONTAINE ST-MARTIN","Address":"78 Rue du Commandant Michard, 73000 Chambéry, France","Phone":"0479709100","ATT":"Alexandra Malartre","TMS":"TMS ESMS (cabinet virtuel)","Statut":"Ouvertes","Latitude":"45.5638893","Longitude":"5.9296145","Type":"ESMS"},{"Name":"KORIAN HAUTS DE L'ABBAYE","Address":"9 RUE DES VERDIERS  76290 MONTIVILLIERS","Phone":"0235130083","ATT":"Pichard Jean-Baptiste","TMS":"TMS 14","Statut":"Ouvertes","Latitude":"49.5364276","Longitude":"0.1799894","Type":"ESMS"},{"Name":"KORIAN JARDIN DE BROU","Address":"19 BOULEVARD DE L'HIPPODROME, 1000 BOURG-EN-BRESSE","Phone":"0474228800","ATT":"Alexandra Malartre","TMS":"TMS ESMS (cabinet virtuel)","Statut":"Ouvertes","Latitude":"46.1923039","Longitude":"5.2372402","Type":"ESMS"},{"Name":"KORIAN JARDIN DE NEPTUNE","Address":"29 Avenue de l'Alma, Saint-Maur-des-Fossés, France","Phone":"0155122160","ATT":"Blandine CHOPIN","TMS":"TMS 31","Statut":"Ouvertes","Latitude":"48.7858172","Longitude":"2.4958687","Type":"ESMS"},{"Name":"KORIAN JARDINS D'HESTIA","Address":"Route des Pierres Blanches, Grézieu-la-Varenne, France","Phone":"0478448043","ATT":"Alexandra Malartre","TMS":"TMS ESMS (cabinet virtuel)","Statut":"Ouvertes","Latitude":"45.7510679","Longitude":"4.703259","Type":"ESMS"},{"Name":"KORIAN JARDINS DE SERENA","Address":"26 Rue du Vivier, 91750 Champcueil","Phone":"0164997608","ATT":"Alexandra Malartre","TMS":"TMS ESMS (cabinet virtuel)","Statut":"Ouvertes","Latitude":"48.517131","Longitude":"2.4485557","Type":"ESMS"},{"Name":"KORIAN L'ERMITAGE","Address":"25 BOULEVARD GEORGES CLEMENCEAU 27400 LOUVIER","Phone":"0232402755","ATT":"Pichard Jean-Baptiste","TMS":"TMS 14","Statut":"Ouvertes","Latitude":"49.2102854","Longitude":"1.1672581","Type":"ESMS"},{"Name":"KORIAN L'ESCONDA","Address":"8 Avenue de Thuyset, 74200 Thonon-les-Bains, France","Phone":"0450742929","ATT":"Alexandra Malartre","TMS":"TMS ESMS (cabinet virtuel)","Statut":"Ouvertes","Latitude":"46.3830302","Longitude":"6.496378","Type":"ESMS"},{"Name":"KORIAN LA BASTIDE","Address":"8 CHEMIN DES HORTS 7700 BOURG SAINT ANDEOL","Phone":"0475545244","ATT":"Alexandra Malartre","TMS":"TMS ESMS (cabinet virtuel)","Statut":"Ouvertes","Latitude":"44.3671866","Longitude":"4.644553999999999","Type":"ESMS"},{"Name":"KORIAN LA DETENTE","Address":"5 Rue du Limonet, 77400 Dampmart, France","Phone":"0164127600","ATT":"Alexandra Malartre","TMS":"TMS ESMS (cabinet virtuel)","Statut":"Ouvertes","Latitude":"48.88910689999999","Longitude":"2.7437267","Type":"ESMS"},{"Name":"KORIAN LA FONTANIERE","Address":"95 MONTEE DE LA RUELLE 69270 FONTAINES SAINT MARTIN","Phone":"0472420600","ATT":"Alexandra Malartre","TMS":"TMS ESMS (cabinet virtuel)","Statut":"Ouvertes","Latitude":"45.8436286","Longitude":"4.8552594","Type":"ESMS"},{"Name":"KORIAN LA GOÉLETTE","Address":"34 RUE SURCOUF 50120 CHERBOURG EN COTENTIN","Phone":"0233082121","ATT":"Pichard Jean-Baptiste","TMS":"TMS 14","Statut":"Ouvertes","Latitude":"49.6571588","Longitude":"-1.6605476","Type":"ESMS"},{"Name":"KORIAN LA LOUBIÈRE","Address":"40 CHEMIN DE BAUME LOUBIÈRE 13013 MARSEILLE","Phone":"0491054141","ATT":"Alexandra Malartre","TMS":"TMS ESMS (cabinet virtuel)","Statut":"Ouvertes","Latitude":"43.3544423","Longitude":"5.4305932","Type":"ESMS"},{"Name":"KORIAN LA MAGDELEINE","Address":"Chem. du Coteret, 77910 Varreddes, Seine-et-Marne, Île-de-France, France","Phone":"0160245454","ATT":"Alexandra Malartre","TMS":"TMS ESMS (cabinet virtuel)","Statut":"Ouvertes","Latitude":"49.0018852","Longitude":"2.9263432","Type":"ESMS"},{"Name":"KORIAN LA RISLE","Address":"RUE JEAN MOULIN 27250 RUGLES","Phone":"0232242424","ATT":"Pichard Jean-Baptiste","TMS":"TMS 14","Statut":"Ouvertes","Latitude":"48.8208342","Longitude":"0.7144139","Type":"ESMS"},{"Name":"KORIAN LA ROSERAIE","Address":"8 AVENUE GENERAL LECLERC 28100 DREUX","Phone":"0237420201","ATT":"Mélanie Chevé","TMS":"TMS 28","Statut":"Ouvertes","Latitude":"48.739464","Longitude":"1.3732324","Type":"ESMS"},{"Name":"KORIAN LA VENISE VERTE","Address":"59, RUE JEAN DE LA FONTAINE 79000 NIORT","Phone":"0549178900","ATT":"Alexandra Malartre","TMS":"TMS ESMS (cabinet virtuel)","Statut":"Ouvertes","Latitude":"46.3201395","Longitude":"-0.4761695","Type":"ESMS"},{"Name":"KORIAN LE CARMEL","Address":"10 Rue Jean Larcher, 65000 Tarbes","Phone":"0562563838","ATT":"Blandine CHOPIN","TMS":"TMS 31","Statut":"Ouvertes","Latitude":"43.2356358","Longitude":"0.0768074","Type":"ESMS"},{"Name":"KORIAN LE DOUBS RIVAGE","Address":"7 AVENUE GEORGES POMPIDOU, 25200, MONTBELIARD","Phone":"0381313000","ATT":"Aurelie HUGOT-JEANNARD","TMS":"TMS 10","Statut":"Ouvertes","Latitude":"47.4981438","Longitude":"6.8007791","Type":"ESMS"},{"Name":"KORIAN LE HAMEAU","Address":"La Bichette, 47360 Prayssas, France","Phone":"0553776211","ATT":"Alexandra Malartre","TMS":"TMS ESMS (cabinet virtuel)","Statut":"Ouvertes","Latitude":"44.2905987","Longitude":"0.5044921","Type":"ESMS"},{"Name":"KORIAN LE RANZAY","Address":"3 Rue du Port Durand, 44300 Nantes","Phone":"0251898383","ATT":"Alexandra Malartre","TMS":"TMS ESMS (cabinet virtuel)","Statut":"Ouvertes","Latitude":"47.2527802","Longitude":"-1.5311695","Type":"ESMS"},{"Name":"KORIAN LES ALINS DU MARECHAL","Address":"5 ROUTE DES ALINS 16730 TROIS PALIS","Phone":"0545906666","ATT":"Alexandra Malartre","TMS":"TMS ESMS (cabinet virtuel)","Statut":"Ouvertes","Latitude":"45.6318042","Longitude":"0.0366055","Type":"ESMS"},{"Name":"KORIAN LES ALYSSES","Address":"124 Rue de la 4ème division d'Infanterie Coloniale 60130 LIEUVILLERS","Phone":"0238469300","ATT":"Alexandra Malartre","TMS":"TMS ESMS (cabinet virtuel)","Statut":"Ouvertes","Latitude":"49.47033219999999","Longitude":"2.4921963","Type":"ESMS"},{"Name":"KORIAN LES AMANDIERS","Address":"5-7 Rue des Cendriers, 75020 Paris","Phone":"0143589000","ATT":"Alexandra Malartre","TMS":"TMS ESMS (cabinet virtuel)","Statut":"Ouvertes","Latitude":"48.865494","Longitude":"2.385914","Type":"ESMS"},{"Name":"KORIAN LES BLES D'OR","Address":"LA MOULINIERE 81150 CASTELNAU DE LEVIS","Phone":"0563476800","ATT":"Blandine CHOPIN","TMS":"TMS 31","Statut":"Ouvertes","Latitude":"43.937962","Longitude":"2.084186","Type":"ESMS"},{"Name":"KORIAN LES BORDS DE L'ISLE","Address":"1 Rue de l'Isle, 24750 Trélissac","Phone":"0553022200","ATT":"Alexandra Malartre","TMS":"TMS ESMS (cabinet virtuel)","Statut":"Ouvertes","Latitude":"45.1881904","Longitude":"0.7397636999999999","Type":"ESMS"},{"Name":"KORIAN LES CAMPELIÈRES","Address":"58, CHEMIN DES CAMPELIÈRES 6110 LE CANNET","Phone":"0493949020","ATT":"Alexandra Malartre","TMS":"TMS ESMS (cabinet virtuel)","Statut":"Ouvertes","Latitude":"43.5800326","Longitude":"7.0074052","Type":"ESMS"},{"Name":"KORIAN LES CENT CLOCHERS","Address":"21 PLACE DE L'ÉGLISE SAINT-SEVER 76100 ROUEN","Phone":"0235032002","ATT":"Pichard Jean-Baptiste","TMS":"TMS 14","Statut":"Ouvertes","Latitude":"49.4301795","Longitude":"1.0849996","Type":"ESMS"},{"Name":"KORIAN LES FAUVETTES","Address":"177 Avenue Gilbert Sardier, 01330 Villars-les-Dombes, France","Phone":"0474983030","ATT":"Alexandra Malartre","TMS":"TMS ESMS (cabinet virtuel)","Statut":"Ouvertes","Latitude":"46.0029097","Longitude":"5.033813599999999","Type":"ESMS"},{"Name":"KORIAN LES HAUTS D'ANDILLY","Address":"4 Rue Philippe le Bel, 95580 Andilly, France","Phone":"0134161296","ATT":"Alexandra Malartre","TMS":"TMS ESMS (cabinet virtuel)","Statut":"Ouvertes","Latitude":"49.0038127","Longitude":"2.2992832","Type":"ESMS"},{"Name":"KORIAN LES LUBERONS","Address":"260 CHEMIN DE LA STATION 13610 LE PUY SAINTE REPARADE","Phone":"0442333435","ATT":"Alexandra Malartre","TMS":"TMS ESMS (cabinet virtuel)","Statut":"Ouvertes","Latitude":"43.6635308","Longitude":"5.4427452","Type":"ESMS"},{"Name":"KORIAN LES PARASOLS","Address":"71, AVENUE MARÉCHAL JUIN 17110 SAINT GEORGES DE DIDONNE","Phone":"0546065050","ATT":"Alexandra Malartre","TMS":"TMS ESMS (cabinet virtuel)","Statut":"Ouvertes","Latitude":"45.6161483","Longitude":"-0.989837","Type":"ESMS"},{"Name":"KORIAN LES RIVES DE L'ODON","Address":"21 RUE DU CHAMP ROUGET, 14210, EVRECY","Phone":"0231292300","ATT":"Pichard Jean-Baptiste","TMS":"TMS 14","Statut":"Ouvertes","Latitude":"49.0957509","Longitude":"-0.5114873","Type":"ESMS"},{"Name":"KORIAN LES ROSES","Address":"95 Rue des Prés Saint-Martin, 77340 Pontault-Combault","Phone":"0160280200","ATT":"Alexandra Malartre","TMS":"TMS ESMS (cabinet virtuel)","Statut":"Ouvertes","Latitude":"48.7944768","Longitude":"2.6118014","Type":"ESMS"},{"Name":"KORIAN LES TAMARIS","Address":"32, BOULEVARD GÉNÉRAL DE GAULLE 34410 SERIGNAN","Phone":"0499413500","ATT":"Blandine CHOPIN","TMS":"TMS 11","Statut":"Ouvertes","Latitude":"43.2713295","Longitude":"3.2714851","Type":"ESMS"},{"Name":"KORIAN LES TERRASSES DE BLANDAN","Address":"29, ROUTE DE VIENNE, 69007, LYON","Phone":"0472722700","ATT":"Alexandra Malartre","TMS":"TMS ESMS (cabinet virtuel)","Statut":"Ouvertes","Latitude":"45.7432878","Longitude":"4.8506224","Type":"ESMS"},{"Name":"KORIAN MAISON D'EMILIENNE","Address":"81540 Cahuzac, France","Phone":"0563741029","ATT":"Blandine CHOPIN","TMS":"TMS 31","Statut":"Ouvertes","Latitude":"43.470882","Longitude":"2.077803","Type":"ESMS"},{"Name":"KORIAN MAISON DES AULNES","Address":"305 Chemin de la Cartonnerie, Sainte-Marguerite, France","Phone":"0329589040","ATT":"Vera Bernard","TMS":"TMS 54","Statut":"Ouvertes","Latitude":"48.27231690000001","Longitude":"6.9769656","Type":"ESMS"},{"Name":"KORIAN MAS DES AINÉS","Address":"CHEMIN DU PUITS 13420 GEMENOS","Phone":"0442327503","ATT":"Alexandra Malartre","TMS":"TMS ESMS (cabinet virtuel)","Statut":"Ouvertes","Latitude":"43.2845374","Longitude":"5.6190148","Type":"ESMS"},{"Name":"KORIAN MONCEAU","Address":"26 Rue Médéric, 75017 Paris","Phone":"0142129595","ATT":"Alexandra Malartre","TMS":"TMS ESMS (cabinet virtuel)","Statut":"Ouvertes","Latitude":"48.8809162","Longitude":"2.3042889","Type":"ESMS"},{"Name":"KORIAN PONTLIEUE","Address":"19 Place ADRIEN TIRONNEAU 72100 LE MANS","Phone":"0243787272","ATT":"Mélanie Chevé","TMS":"TMS 72","Statut":"Ouvertes","Latitude":"47.9834848","Longitude":"0.2100336","Type":"ESMS"},{"Name":"KORIAN PORTE OCÉANE","Address":"29 RUE LOUIS BRINDEAU 76600 LE HAVRE","Phone":"0232853400","ATT":"Pichard Jean-Baptiste","TMS":"TMS 14","Statut":"Ouvertes","Latitude":"49.4914542","Longitude":"0.1020221","Type":"ESMS"},{"Name":"KORIAN REINE MATHILDE","Address":"4 Rue des Hauts Vents, Grainville-sur-Odon, France","Phone":"0231803313","ATT":"Pichard Jean-Baptiste","TMS":"TMS 14","Statut":"Ouvertes","Latitude":"49.1415785","Longitude":"-0.526336","Type":"ESMS"},{"Name":"KORIAN RIVE DE SELUNE","Address":"4 RUE DU COLLEGE 50640 LE TEILLEUL","Phone":"0233686360","ATT":"Pichard Jean-Baptiste","TMS":"TMS 14","Statut":"Ouvertes","Latitude":"48.534315","Longitude":"-0.8734125","Type":"ESMS"},{"Name":"KORIAN LA MOUNARDIERE","Address":"10 AVENUE PIERRE MENDES FRANCE, 42270, SAINT PRIEST EN JAREZ","Phone":"0477932120","ATT":"Alexandra Malartre","TMS":"TMS ESMS (cabinet virtuel)","Statut":"Ouvertes","Latitude":"45.46998079999999","Longitude":"4.3759476","Type":"ESMS"},{"Name":"KORIAN SAINTE GENEVIEVE","Address":"1 Pl. de l'Église, 77850 Héricy","Phone":"0160745108","ATT":"Alexandra Malartre","TMS":"TMS ESMS (cabinet virtuel)","Statut":"Ouvertes","Latitude":"48.4498567","Longitude":"2.7658213","Type":"ESMS"},{"Name":"KORIAN SAISON DOREE","Address":"8 RUE ANTOINE PERICAUD, 69008, LYON","Phone":"0478765757","ATT":"Alexandra Malartre","TMS":"TMS ESMS (cabinet virtuel)","Statut":"Ouvertes","Latitude":"45.735922","Longitude":"4.8652996","Type":"ESMS"},{"Name":"KORIAN VAL AUX FLEURS","Address":"67  GRANDE RUE 27730 BUEIL","Phone":"0232365819","ATT":"Pichard Jean-Baptiste","TMS":"TMS 14","Statut":"Ouvertes","Latitude":"48.9351693","Longitude":"1.4391483","Type":"ESMS"},{"Name":"KORIAN VAL D'ESSONNE","Address":"1 All. du Val d'Essonne, 78310 Maurepas","Phone":"0130692000","ATT":"Alexandra Malartre","TMS":"TMS ESMS (cabinet virtuel)","Statut":"Ouvertes","Latitude":"48.7656383","Longitude":"1.9470292","Type":"ESMS"},{"Name":"KORIAN VILLA D'ALBON","Address":"11-13 AVENUE GAMBETTA, 42300, ROANNE","Phone":"0477666677","ATT":"Alexandra Malartre","TMS":"TMS ESMS (cabinet virtuel)","Statut":"Ouvertes","Latitude":"46.0392883","Longitude":"4.0669635","Type":"ESMS"},{"Name":"KORIAN VILLA JANIN","Address":"9 RUE DU TREYVE, 42000, SAINT-ETIENNE","Phone":"0477795000","ATT":"Alexandra Malartre","TMS":"TMS ESMS (cabinet virtuel)","Statut":"Ouvertes","Latitude":"45.44815029999999","Longitude":"4.389959999999999","Type":"ESMS"},{"Name":"KORIAN VILLA PEGASE","Address":"5 Av. Favart, 78600 Maisons-Laffitte","Phone":"0134935000","ATT":"Alexandra Malartre","TMS":"TMS ESMS (cabinet virtuel)","Statut":"Ouvertes","Latitude":"48.9534804","Longitude":"2.1626002","Type":"ESMS"},{"Name":"MAIRIE DANS LOCAUX MSP- IDEL GENSAC LA PALLUE","Address":"1 PLACE EGLISE 16130 GENSAC LA PALLUE","Phone":"","ATT":"Aurelie HUGOT-JEANNARD","TMS":"TMS 10","Statut":"Ouvertes","Latitude":"45.6520044","Longitude":"-0.2515181","Type":"CDS/MSP/CM"},{"Name":"MAIRIE DE BATILLY","Address":"12 TER AV. DES TILLEULS, 54980 BATILLY","Phone":"0684612366","ATT":"Vera Bernard","TMS":"TMS 55","Statut":"Ouvertes","Latitude":"49.1712658","Longitude":"5.9697314","Type":"Salle collectivité"},{"Name":"MAISON DE SANTÉ À DAMMARIE-SUR-SAULX MARIE JEANNE JEANMAIRE","Address":"4 RUE DES GENDARMES 55500 DAMMARIE SUR SAULX","Phone":"","ATT":"Vera Bernard","TMS":"TMS 55","Statut":"Ouvertes","Latitude":"48.593644","Longitude":"5.243514999999999","Type":"Cabinet Infirmier"},{"Name":"MAISON DE SANTE DE BALAN","Address":"31 RUE POUPART DE NEUFLIZE 08200 BALAN","Phone":"","ATT":"Vera Bernard","TMS":"TMS 55","Statut":"Ouvertes","Latitude":"49.6910849","Longitude":"4.9597896","Type":"CDS/MSP/CM"},{"Name":"MAISON DE SANTE DU MIGENNOIS","Address":"5 Place Henri Dunant, 89400 Migennes, France","Phone":"0376080187","ATT":"Aurelie HUGOT-JEANNARD","TMS":"TMS 10","Statut":"Ouvertes","Latitude":"47.9629833","Longitude":"3.5107124","Type":"CDS/MSP/CM"},{"Name":"MAISON DE SANTÉ L'ESPERAN","Address":"710 CHEMIN DE LA GAFFARDE 30130 ST ALEXANDRE","Phone":"","ATT":"Blandine CHOPIN","TMS":"TMS 31","Statut":"Ouvertes","Latitude":"44.22981069999999","Longitude":"4.6322636","Type":"CDS/MSP/CM"},{"Name":"MEDIBUS 72","Address":"2 Rue des Maillets, 72072 Le Mans","Phone":"0675227910","ATT":"Mélanie Chevé","TMS":"TMS 72","Statut":"Ouvertes","Latitude":"48.01195920000001","Longitude":"0.2054383","Type":"véhicule de télémédecine assitée"},{"Name":"Maison de Santé D'ARCIS SUR AUBE","Address":"77 RUE SAINT REMY 10700 ARCIS SUR AUBE","Phone":"0325378209","ATT":"Aurelie HUGOT-JEANNARD","TMS":"TMS 10","Statut":"Ouvertes","Latitude":"48.531071","Longitude":"4.139535","Type":"CDS/MSP/CM"},{"Name":"MSP D'ETAIN (DAC MEUSE)","Address":"8 RUE DU DOCTEUR MUNIER 55400 ETAIN","Phone":"","ATT":"Vera Bernard","TMS":"TMS 55","Statut":"Ouvertes","Latitude":"49.2117079","Longitude":"5.6369023","Type":"CDS/MSP/CM"},{"Name":"MSP D'HERSERANGE","Address":"100 RUE DE PARIS 54440 HERSERANGE","Phone":"","ATT":"Vera Bernard","TMS":"TMS 55","Statut":"Ouvertes","Latitude":"49.5181385","Longitude":"5.7837516","Type":"CDS/MSP/CM"},{"Name":"MSP DE BAR SUR AUBE","Address":"5 RUE DU JARD 10200 BAR SUR AUBE","Phone":"","ATT":"Aurelie HUGOT-JEANNARD","TMS":"TMS 10","Statut":"Ouvertes","Latitude":"48.235589","Longitude":"4.7024029","Type":"CDS/MSP/CM"},{"Name":"MSP DE CARIGNAN","Address":"23 AVENUE DE BLAGNY 08110 CARIGNAN","Phone":"","ATT":"Vera Bernard","TMS":"TMS 55","Statut":"Ouvertes","Latitude":"49.6294278","Longitude":"5.1698669","Type":"CDS/MSP/CM"},{"Name":"MSP LONGUYON","Address":"7B RUE ALBERT LEBRUN, 54260 LONGUYON","Phone":"","ATT":"Vera Bernard","TMS":"TMS 55","Statut":"Ouvertes","Latitude":"49.4452522","Longitude":"5.603068299999999","Type":"CDS/MSP/CM"},{"Name":"MSP MONTMEDY","Address":"1 RUE DU LUXEMBOURG 55600 MONTMEDY","Phone":"","ATT":"Vera Bernard","TMS":"TMS 55","Statut":"Ouvertes","Latitude":"49.5203754","Longitude":"5.366941499999999","Type":"CDS/MSP/CM"},{"Name":"SALLE DE LA NOUE - SAINT-DIZIER","Address":"143 Avenue de la République, 52100 Saint-Dizier, France","Phone":"","ATT":"Aurelie HUGOT-JEANNARD","TMS":"TMS 10","Statut":"Ouvertes","Latitude":"48.63740629999999","Longitude":"4.9397768","Type":"CDS/MSP/CM"},{"Name":"SALLE DU CLOS MORTIER  - SAINT-DIZIER","Address":"S.C.M. Le Perthuis, 11 Rue Henri IV, Saint-Dizier, France","Phone":"","ATT":"Aurelie HUGOT-JEANNARD","TMS":"TMS 10","Statut":"Ouvertes","Latitude":"48.631322","Longitude":"4.968351","Type":"CDS/MSP/CM"},{"Name":"MSP/CH Bar sur Seine (10)","Address":"6 Rue du Stade, 10110 Bar-sur-Seine, France","Phone":"0325298241","ATT":"Aurelie HUGOT-JEANNARD","TMS":"TMS 10","Statut":"Ouvertes","Latitude":"48.12266779999999","Longitude":"4.3712938","Type":"CDS/MSP/CM"},{"Name":"ODYS 10","Address":"Troyes, France","Phone":"","ATT":"Aurelie HUGOT-JEANNARD","TMS":"TMS 10","Statut":"Ouvertes","Latitude":"48.2975056","Longitude":"4.0746921","Type":"ODYS"},{"Name":"ODYS 28","Address":"","Phone":"","ATT":"Mélanie Chevé","TMS":"TMS 28","Statut":"Ouvertes","Latitude":null,"Longitude":null,"Type":"ODYS"},{"Name":"ODYS 55","Address":"8 RUE DU CHÂTEAU, 55170 COUSANCES-LES-FORGES, FRANCE","Phone":"","ATT":"Vera Bernard","TMS":"TMS 55","Statut":"Ouvertes","Latitude":"48.609642","Longitude":"5.0799255","Type":"ODYS"},{"Name":"PHARMACIE CENTRALE BAR LE DUC","Address":"4 RUE MAGINOT 55000 BAR LE DUC","Phone":"","ATT":"Vera Bernard","TMS":"TMS 55","Statut":"Ouvertes","Latitude":"48.7739968","Longitude":"5.159880999999999","Type":"Pharmacie"},{"Name":"PHARMACIE CŒUR DE CHAMPAGNE","Address":"49 RUE   PAUL DOUMER 51120 SÉZANNE","Phone":"0326806497","ATT":"Aurelie HUGOT-JEANNARD","TMS":"TMS 10","Statut":"Ouvertes","Latitude":"48.7216567","Longitude":"3.7229101","Type":"Pharmacie"},{"Name":"PHARMACIE Poincare VERDUN","Address":"26 RUE DU PRESIDENT POINCARE 55100 VERDUN","Phone":"","ATT":"Vera Bernard","TMS":"TMS 55","Statut":"Ouvertes","Latitude":"49.158583","Longitude":"5.386667","Type":"Pharmacie"},{"Name":"PHARMACIE D'AUXON","Address":"329 RUE DES CARRES 10130 AUXON","Phone":"0325420091","ATT":"Aurelie HUGOT-JEANNARD","TMS":"TMS 10","Statut":"Ouvertes","Latitude":"48.1094532","Longitude":"3.921951099999999","Type":"Pharmacie"},{"Name":"PHARMACIE D'ESSOYES","Address":"14 RUE VICTOR HUGO 10360 ESSOYES","Phone":"0325296225","ATT":"Aurelie HUGOT-JEANNARD","TMS":"TMS 10","Statut":"Ouvertes","Latitude":"48.0580727","Longitude":"4.5362323","Type":"Pharmacie"},{"Name":"PHARMACIE DE BIESLES","Address":"10 RUE VERDUN 52340 BIESLES","Phone":"0325319460","ATT":"Aurelie HUGOT-JEANNARD","TMS":"TMS 10","Statut":"Ouvertes","Latitude":"48.0853486","Longitude":"5.2959561","Type":"Pharmacie"},{"Name":"PHARMACIE DE GUISE","Address":"42 RUE GÉNÉRAL PHILIPPE LECLERC, 52270 DOULAINCOURT-SAUCOURT","Phone":"0325946434","ATT":"Aurelie HUGOT-JEANNARD","TMS":"TMS 10","Statut":"Ouvertes","Latitude":"48.3177306","Longitude":"5.2100145","Type":"Pharmacie"},{"Name":"MAIRIE à Le Teil","Address":"1, Place Jean Macé, 26200 MONTELIMAR","Phone":"0428370558","ATT":"Laurence KEIM","TMS":"TMS 26","Statut":"Ouvertes","Latitude":"44.5499246","Longitude":"4.684012","Type":"Salle collectivité"},{"Name":"PHARMACIE DE L'OTHAIN SPINCOURT","Address":"9 CHEMIN DU MONT 55230 SPINCOURT","Phone":"","ATT":"Vera Bernard","TMS":"TMS 55","Statut":"Ouvertes","Latitude":"49.3325502","Longitude":"5.662289299999999","Type":"Pharmacie"},{"Name":"PHARMACIE DE LA PLACE MONTMÉDY","Address":"9 RUE MABILLE 55600 MONTMEDY","Phone":"0329801134","ATT":"Vera Bernard","TMS":"TMS 55","Statut":"Ouvertes","Latitude":"49.5192786","Longitude":"5.367744399999999","Type":"Pharmacie"},{"Name":"PHARMACIE DE LA VALLEE","Address":"39 ROUTE DE DIJON 10310 VILLE SOUS LA FERTE","Phone":"0325278109","ATT":"Aurelie HUGOT-JEANNARD","TMS":"TMS 10","Statut":"Ouvertes","Latitude":"48.123632","Longitude":"4.789674499999999","Type":"Pharmacie"},{"Name":"PHARMACIE DE MARBOT","Address":"65 RUE DE SAINT MIHIEL 55000 BAR LE DUC","Phone":"","ATT":"Vera Bernard","TMS":"TMS 55","Statut":"Ouvertes","Latitude":"48.7735515","Longitude":"5.1744949","Type":"Pharmacie"},{"Name":"PHARMACIE DEGOT","Address":"9 RUE MARIE POIROT 88240 LA VÔGE-LES-BAINS","Phone":"33329304309","ATT":"Aurelie HUGOT-JEANNARD","TMS":"TMS 10","Statut":"Ouvertes","Latitude":"48.0013054","Longitude":"6.2630988","Type":"Pharmacie"},{"Name":"PHARMACIE DES DUCS DE BAR BOURMONT","Address":"61 RUE DU FAUBOURG DE FRANCE 52150 BOURMONT ENTRE MEUSE ET MO","Phone":"","ATT":"Vera Bernard","TMS":"TMS 55","Statut":"Ouvertes","Latitude":"48.19853089999999","Longitude":"5.585729499999999","Type":"Pharmacie"},{"Name":"PHARMACIE DES TROIS VILLES","Address":"17 RUE DES TROIS VILLES 88100 ST DIE DES VOSGES","Phone":"","ATT":"Vera Bernard","TMS":"TMS 55","Statut":"Ouvertes","Latitude":"48.28987009999999","Longitude":"6.946186","Type":"Pharmacie"},{"Name":"PHARMACIE DOSTE BAR LE DUC","Address":"37 RUE DES DUCS 55000 BAR LE DUC","Phone":"","ATT":"Vera Bernard","TMS":"TMS 55","Statut":"Ouvertes","Latitude":"48.7691477","Longitude":"5.1581652","Type":"Pharmacie"},{"Name":"PHARMACIE DU FAUBOURG VERDUN","Address":"75 AVENUE DE LA 42EME DIVISION 55100 VERDUN","Phone":"","ATT":"Vera Bernard","TMS":"TMS 55","Statut":"Ouvertes","Latitude":"49.16403700000001","Longitude":"5.395523499999999","Type":"Pharmacie"},{"Name":"PHARMACIE DU FORUM","Address":"3 RUE DE CHAMPAGNE 61200 ARGENTAN","Phone":"0233362289","ATT":"Pichard Jean-Baptiste","TMS":"TMS 14","Statut":"Ouvertes","Latitude":"48.7503238","Longitude":"-0.0278976","Type":"Pharmacie"},{"Name":"PHARMACIE ERVY LE CHATEL BENNETON-MARTINEZ ET HANT","Address":"6 PLACE SAINT-NICOLAS 10130 ERVY LE CHATEL","Phone":"0325706436","ATT":"Aurelie HUGOT-JEANNARD","TMS":"TMS 10","Statut":"Ouvertes","Latitude":"48.04089459999999","Longitude":"3.9117232","Type":"Pharmacie"},{"Name":"PHARMACIE MAUVIGNANT-Mailly-le-Camp","Address":"140 RUE CHARLES DE GAULLE 10230 MAILLY LE CAMP","Phone":"0325373161","ATT":"Aurelie HUGOT-JEANNARD","TMS":"TMS 10","Statut":"Ouvertes","Latitude":"48.6733906","Longitude":"4.1858169","Type":"Pharmacie"},{"Name":"PHARMACIE FRANCOIS OLIVIER VERDUN","Address":"8 PLACE FOCH 55100 VERDUN","Phone":"","ATT":"Vera Bernard","TMS":"TMS 55","Statut":"Ouvertes","Latitude":"49.1598938","Longitude":"5.3847052","Type":"Pharmacie"},{"Name":"PHARMACIE LA ROCHOTTE","Address":"33 AVENUE ASHTON UNDER LYNE 52000 CHAUMONT","Phone":"0325032283","ATT":"Aurelie HUGOT-JEANNARD","TMS":"TMS 10","Statut":"Ouvertes","Latitude":"48.09262349999999","Longitude":"5.1380366","Type":"Pharmacie"},{"Name":"PHARMACIE LAFAYETTE MARC MONTMÉDY","Address":"15 RUE MABILLE 55600 MONTMEDY","Phone":"","ATT":"Vera Bernard","TMS":"TMS 55","Statut":"Ouvertes","Latitude":"49.519003","Longitude":"5.3677341","Type":"Pharmacie"},{"Name":"PHARMACIE LELIEVRE VIGNOT","Address":"12 RUE JEAN THIRIOT 55200 VIGNOT","Phone":"","ATT":"Vera Bernard","TMS":"TMS 55","Statut":"Ouvertes","Latitude":"48.7730235","Longitude":"5.6088625","Type":"Pharmacie"},{"Name":"PHARMACIE LERMITE / IDEL MSP NOGENT SUR AUBE","Address":"63  GRANDE RUE 10240 NOGENT SUR AUBE","Phone":"0325376680","ATT":"Aurelie HUGOT-JEANNARD","TMS":"TMS 10","Statut":"Ouvertes","Latitude":"48.4936698","Longitude":"4.310187","Type":"Pharmacie"},{"Name":"PHARMACIE MATHIEU À JARNY","Address":"22 AVENUE DU GÉNÉRAL PATTON 54800 JARNY","Phone":"0332208700","ATT":"Vera Bernard","TMS":"TMS 55","Statut":"Ouvertes","Latitude":"49.1612473","Longitude":"5.8732411","Type":"Pharmacie"},{"Name":"PHARMACIE MUTELET DE SAINT PARRES LES VAUDES","Address":"11 BOULEVARD FRANCOIS MOTHRE 10260 ST PARRES LES VAUDES","Phone":"0325409219","ATT":"Aurelie HUGOT-JEANNARD","TMS":"TMS 10","Statut":"Ouvertes","Latitude":"48.1701399","Longitude":"4.217408","Type":"Pharmacie"},{"Name":"PHARMACIE MUTUALISTE AESIO À FIRMINY","Address":"1 RUE  SADI CARNOT 42095 FIRMINY","Phone":"0477568250","ATT":"Aurelie HUGOT-JEANNARD","TMS":"TMS 10","Statut":"Ouvertes","Latitude":"45.38642429999999","Longitude":"4.2864015","Type":"Pharmacie"},{"Name":"PHARMACIE MUTUALISTE AESIO À SAINT-CHAMOND","Address":"80 RUE  RÉPUBLIQUE 42400 SAINT-CHAMOND","Phone":"0477220012","ATT":"Aurelie HUGOT-JEANNARD","TMS":"TMS 10","Statut":"Ouvertes","Latitude":"45.4758792","Longitude":"4.5092203","Type":"Pharmacie"},{"Name":"PHARMACIE MUTUALITÉ AESIO À CHARLIEU","Address":"1 BOULEVARD JACQUARD 42052 CHARLIEU","Phone":"0477600520","ATT":"Aurelie HUGOT-JEANNARD","TMS":"TMS 10","Statut":"Ouvertes","Latitude":"46.1582889","Longitude":"4.173578","Type":"Pharmacie"},{"Name":"PHARMACIE PIENNES (DE LA LIBERTE)","Address":"4 RUE DE LA LIBERTE 54490 PIENNES","Phone":"","ATT":"Vera Bernard","TMS":"TMS 55","Statut":"Ouvertes","Latitude":"49.3116522","Longitude":"5.7812679","Type":"Pharmacie"},{"Name":"PHARMACIE VESSIE LAIGNES","Address":"10 GRAND RUE  PORTE DE LA CROIX,  21330 LAIGNES","Phone":"0380814198","ATT":"Aurelie HUGOT-JEANNARD","TMS":"TMS 10","Statut":"Ouvertes","Latitude":"47.842979","Longitude":"4.365004000000001","Type":"Pharmacie"},{"Name":"PLATEAU DE COORDINATION MÉDICALE SITE APEI Labourat 10 - TROYES","Address":"29TER AVENUE MARTYRS DE LA RÉSISTANCE 10000 TROYES","Phone":"0325769333","ATT":"Aurelie HUGOT-JEANNARD","TMS":"TMS 10","Statut":"Ouvertes","Latitude":"48.30716169999999","Longitude":"4.092321","Type":"Foyer d'accueil"},{"Name":"RÉSIDENCE JACQUES WEIL","Address":"62 PLACE ARISTIDE BRIAND 52000 CHAUMONT","Phone":"0325035426","ATT":"Aurelie HUGOT-JEANNARD","TMS":"TMS 10","Statut":"Ouvertes","Latitude":"48.11766979999999","Longitude":"5.143932599999999","Type":"ESMS"},{"Name":"MAIRIE ANCONE","Address":"40 Grande Rue, 26200 Ancône","Phone":"0428370858","ATT":"Laurence KEIM","TMS":"TMS 26","Statut":"Ouvertes","Latitude":"44.5825745","Longitude":"4.7268838","Type":"Salle collectivité"},{"Name":"SOS FEMMES ACCUEIL","Address":"2 RUE SAINT-JOHN PERSE 52100 SAINT DIZIER","Phone":"0325065070","ATT":"Aurelie HUGOT-JEANNARD","TMS":"TMS 10","Statut":"Ouvertes","Latitude":"48.6449216","Longitude":"4.9758813","Type":"Foyer d'accueil"},{"Name":"UTT TROYES","Address":"12 RUE MARIE CURIE 10000 TROYES","Phone":"0325717671","ATT":"Aurelie HUGOT-JEANNARD","TMS":"TMS 10","Statut":"Ouvertes","Latitude":"48.2698421","Longitude":"4.0661404","Type":"Etablissement scolaire"},{"Name":"Valise mobile CPTS LE MANS AGGLO","Address":"Le Mans, France","Phone":"","ATT":"Mélanie Chevé","TMS":"TMS 72","Statut":"Ouvertes","Latitude":"48.00578669999999","Longitude":"0.2015378","Type":"Domicile"},{"Name":"Y SCHOOLS TROYES","Address":"217 AVENUE PIERRE BROSSOLETTE 10000 TROYES","Phone":"0325712219","ATT":"Aurelie HUGOT-JEANNARD","TMS":"TMS 10","Statut":"Ouvertes","Latitude":"48.2839958","Longitude":"4.0797782","Type":"Etablissement scolaire"},{"Name":"KORIAN BORDS DE LA MARQUE","Address":"151 bis Rue Principale 59510 FOREST SUR MARQUE","Phone":"0328765800","ATT":"Alexandra Malartre","TMS":"TMS ESMS (cabinet virtuel)","Statut":"Ouvertes","Latitude":"50.6301798","Longitude":"3.1886249","Type":"ESMS"},{"Name":"KORIAN L'ILE DE MIGNEAUX","Address":"52 Rue de Villiers, 78300 Poissy","Phone":"0139798000","ATT":"Alexandra Malartre","TMS":"TMS ESMS (cabinet virtuel)","Statut":"Ouvertes","Latitude":"48.923461","Longitude":"2.0314868","Type":"ESMS"},{"Name":"KORIAN NYMPHÉAS BLEUS","Address":"15 AVENUE PIERRE MENDES 27200 VERNON","Phone":"0232647700","ATT":"Pichard Jean-Baptiste","TMS":"TMS 14","Statut":"Ouvertes","Latitude":"49.0912249","Longitude":"1.4862183","Type":"ESMS"},{"Name":"KORIAN THALATTA","Address":"40 BOULEVARD BOIVIN CHAMPEAUX 14150 OUISTREHAM","Phone":"0231364200","ATT":"Pichard Jean-Baptiste","TMS":"TMS 14","Statut":"Ouvertes","Latitude":"49.2850373","Longitude":"-0.2514962","Type":"ESMS"},{"Name":"KORIAN MAISON SAINT MARTIN","Address":"2, RUE DU DOCTEUR CASSIUS 47390 LAYRAC","Phone":"0553484000","ATT":"Blandine CHOPIN","TMS":"TMS 31","Statut":"Ouvertes","Latitude":"44.1362963","Longitude":"0.658982","Type":"ESMS"},{"Name":"KORIAN LES MARQUISES","Address":"68 Rue Nationale 59700 MARCQ EN BAROEUL","Phone":"0320741213","ATT":"Alexandra Malartre","TMS":"TMS ESMS (cabinet virtuel)","Statut":"Ouvertes","Latitude":"50.66493089999999","Longitude":"3.0752722","Type":"ESMS"},{"Name":"KORIAN VILLA LOUISA","Address":"74 Bis Cours Saint-Louis, Bordeaux, France","Phone":"0557105850","ATT":"Alexandra Malartre","TMS":"TMS ESMS (cabinet virtuel)","Statut":"Ouvertes","Latitude":"44.85838","Longitude":"-0.5695203","Type":"ESMS"},{"Name":"KORIAN LES AJONCS","Address":"1 RUE DU PRÉ DES ESSARTS 17170 BENON","Phone":"0546352200","ATT":"Alexandra Malartre","TMS":"TMS ESMS (cabinet virtuel)","Statut":"Ouvertes","Latitude":"46.20173519999999","Longitude":"-0.8161336","Type":"ESMS"},{"Name":"KORIAN VILLA THAIS","Address":"9 Rue Jules Massenet, Valence, France","Phone":"0475823800","ATT":"Alexandra Malartre","TMS":"TMS ESMS (cabinet virtuel)","Statut":"Ouvertes","Latitude":"44.932326","Longitude":"4.9059978","Type":"ESMS"},{"Name":"KORIAN CÔTE SAUVAGE","Address":"1 IMPASSE DE LA CARRIÈRE  17590 ARS EN RE","Phone":"0546291170","ATT":"Alexandra Malartre","TMS":"TMS ESMS (cabinet virtuel)","Statut":"Ouvertes","Latitude":"46.2049229","Longitude":"-1.5281755","Type":"ESMS"},{"Name":"CLINIQUE/EHPAD LE VERDON","Address":"Route de Riez, BP 13 04800 Gréoux-les-Bains, France","Phone":"0492705200","ATT":"Alexandra Malartre","TMS":"TMS ESMS (cabinet virtuel)","Statut":"Ouvertes","Latitude":"43.7575357","Longitude":"5.9084466","Type":"ESMS"},{"Name":"KORIAN L'ASTREE","Address":"26-28 RUE DE MOLINA 42000 SAINT-ETIENNE","Phone":"0477020280","ATT":"Alexandra Malartre","TMS":"TMS ESMS (cabinet virtuel)","Statut":"Ouvertes","Latitude":"45.465269","Longitude":"4.400506099999999","Type":"ESMS"},{"Name":"KORIAN MARISOL","Address":"33 Avenue Léon Jouhaux, Sevran, France","Phone":"0149364040","ATT":"Alexandra Malartre","TMS":"TMS ESMS (cabinet virtuel)","Statut":"Ouvertes","Latitude":"48.9392402","Longitude":"2.5358166","Type":"ESMS"},{"Name":"CPTS DU PAYS LURON","Address":"4 AVENUE DE LA RÉPUBLIQUE 70200 LURE","Phone":"0363881068","ATT":"Aurelie HUGOT-JEANNARD","TMS":"TMS 10","Statut":"Ouvertes","Latitude":"47.6838014","Longitude":"6.4957023","Type":"CPTS"},{"Name":"KORIAN VILLA LAURAGAIS","Address":"105 Chemin Célestin Anduze, Baziège, France","Phone":"0561812624","ATT":"Blandine CHOPIN","TMS":"TMS 31","Statut":"Ouvertes","Latitude":"43.4540789","Longitude":"1.6095329","Type":"ESMS"},{"Name":"MSP de la Concorde","Address":"25 Rue Roquelaine, Toulouse, France","Phone":"0624050011","ATT":"Blandine CHOPIN","TMS":"TMS 31","Statut":"Ouvertes","Latitude":"43.6112124","Longitude":"1.4460036","Type":"CDS/MSP/CM"},{"Name":"KORIAN LES CEDRES","Address":"30 Bis Avenue de la Station, Villemomble, France","Phone":"0148123800","ATT":"Alexandra Malartre","TMS":"TMS ESMS (cabinet virtuel)","Statut":"Ouvertes","Latitude":"48.8858136","Longitude":"2.5223107","Type":"ESMS"},{"Name":"IDEL SAINT-JUST-SAUVAGE","Address":"2 rue Romain Rolland, 51260 Saint-Just-Sauvage","Phone":"0685546821","ATT":"Aurelie HUGOT-JEANNARD","TMS":"TMS 10","Statut":"Ouvertes","Latitude":"48.553823","Longitude":"3.78382","Type":"Cabinet Infirmier"},{"Name":"KORIAN JARDINS DU CHARMOIS","Address":"1 RUE DU CHARMOIS 54500 VANDOEUVRE LES NANCY","Phone":"0383974550","ATT":"Aurelie HUGOT-JEANNARD","TMS":"TMS 10","Statut":"Ouvertes","Latitude":"48.6685823","Longitude":"6.1707785","Type":"ESMS"},{"Name":"KORIAN LES FILS D'ARGENT","Address":"44 Rue du Docteur René Laforge, Fontenay-le-Comte, France","Phone":"0251510616","ATT":"Alexandra Malartre","TMS":"TMS ESMS (cabinet virtuel)","Statut":"Ouvertes","Latitude":"46.46702399999999","Longitude":"-0.8305892","Type":"ESMS"},{"Name":"KORIAN L'ORADOU","Address":"ALLEE DE BEAULIEU, 63000, CLERMONT-FERRAND","Phone":"0473744646","ATT":"Alexandra Malartre","TMS":"TMS ESMS (cabinet virtuel)","Statut":"Ouvertes","Latitude":"45.768113","Longitude":"3.1079","Type":"ESMS"},{"Name":"Salle de JOIGNY via CPTS Centre Yonne","Address":"Joigny, France","Phone":"","ATT":"Aurelie HUGOT-JEANNARD","TMS":"TMS 10","Statut":"Ouvertes","Latitude":"47.981432","Longitude":"3.398961","Type":"CPTS"},{"Name":"Centre Départemental de l'Enfance (CDE 10)","Address":"34 Rue Célestin Philbois, Saint-Parres-aux-Tertres, France","Phone":"0325813390","ATT":"Aurelie HUGOT-JEANNARD","TMS":"TMS 10","Statut":"Ouvertes","Latitude":"48.3028296","Longitude":"4.109585","Type":"Foyer d'accueil"},{"Name":"KORIAN VILLA DES REMES","Address":"2 Rue d'Aix la Chapelle, Reims, France","Phone":"0326027700","ATT":"Aurelie HUGOT-JEANNARD","TMS":"TMS 10","Statut":"Ouvertes","Latitude":"49.2527267","Longitude":"4.0629254","Type":"ESMS"},{"Name":"UGECAM Maison d'enfants La Combe - SSR / DITEP","Address":"LA COMBE 88210 SENONES","Phone":"0329578889","ATT":"Aurelie HUGOT-JEANNARD","TMS":"TMS 10","Statut":"Ouvertes","Latitude":"48.4038995","Longitude":"6.9767796","Type":"Foyer d'accueil"},{"Name":"274-EMEIS Résidence MARENGO-JOLIMONT","Address":"13 Avenue Léon Blum, 31500 Toulouse, France","Phone":"0534250697","ATT":"Blandine CHOPIN","TMS":"TMS 31","Statut":"Ouvertes","Latitude":"43.6147534","Longitude":"1.4632033","Type":"ESMS"},{"Name":"67 - EMEIS Résidence Saint-Fursy","Address":"Rue Saint-Sauveur, Péronne, France","Phone":"0322840334","ATT":"Alexandra Malartre","TMS":"TMS ESMS Emeis","Statut":"Ouvertes","Latitude":"49.930787","Longitude":"2.9371607","Type":"ESMS"},{"Name":"415 - EMEIS Résidence Saint-Jean","Address":"37 Rue de Valbelle, 62500 Saint-Omer, France","Phone":"0321116720","ATT":"Alexandra Malartre","TMS":"TMS ESMS Emeis","Statut":"Ouvertes","Latitude":"50.7504359","Longitude":"2.255059","Type":"ESMS"},{"Name":"474 -EMEIS Résidence RESIDENCE LES LYS","Address":"160 Rue Henri Barbusse, 62640 Montigny-en-Gohelle, France","Phone":"0391840800","ATT":"Alexandra Malartre","TMS":"TMS ESMS Emeis","Statut":"Ouvertes","Latitude":"50.4308896","Longitude":"2.9303118","Type":"ESMS"},{"Name":"CABINET IDEL LEBARBEY","Address":"14 ZAC LE RONCERET 50330 ST PIERRE EGLISE","Phone":"0632753365","ATT":"Pichard Jean-Baptiste","TMS":"TMS 14","Statut":"Ouvertes","Latitude":"49.668355","Longitude":"-1.404383","Type":"Cabinet Infirmier"},{"Name":"EHPAD Saint Joseph - Livarot","Address":"55 Rue du Général Leclerc, Livarot-Pays-d'Auge, France","Phone":"0231635180","ATT":"Pichard Jean-Baptiste","TMS":"TMS 14","Statut":"Ouvertes","Latitude":"49.0013076","Longitude":"0.1506986","Type":"ESMS"},{"Name":"Laboratoire Ouilab Dynalab Chaumont","Address":"50 Rue Victoire de la Marne, 52000 Chaumont","Phone":"0670304164","ATT":"Aurelie HUGOT-JEANNARD","TMS":"TMS 10","Statut":"Ouvertes","Latitude":"48.112723","Longitude":"5.1413951","Type":"Laboratoire"},{"Name":"CPTS Auxois Morvan, ROUVRAY","Address":"36 Rue Général Leclerc, Rouvray, France","Phone":"0345082943","ATT":"Aurelie HUGOT-JEANNARD","TMS":"TMS 10","Statut":"Ouvertes","Latitude":"47.42466839999999","Longitude":"4.103793899999999","Type":"CPTS"},{"Name":"CPTS PORTE DE FRANCE MOSELLE","Address":"7 Rue Fabert, 57600 Forbach, France","Phone":"0675039027","ATT":"Vera Bernard","TMS":"TMS 54","Statut":"Ouvertes","Latitude":"49.1841095","Longitude":"6.895473399999999","Type":"CPTS"},{"Name":"KORIAN VAL PRÉ","Address":"13, BOULEVARD DU VAL DE PRÉ 13400 AUBAGNE","Phone":"0442721140","ATT":"Alexandra Malartre","TMS":"TMS ESMS (cabinet virtuel)","Statut":"Ouvertes","Latitude":"43.3001055","Longitude":"5.572229699999999","Type":"ESMS"},{"Name":"EHPAD LES 3 Vallées","Address":"Cr des 3 Vallées, Coulaines, France","Phone":"0243762076","ATT":"Mélanie Chevé","TMS":"TMS 72","Statut":"Ouvertes","Latitude":"48.0251526","Longitude":"0.2116448","Type":"ESMS"},{"Name":"KORIAN JARDINS D'HUGO","Address":"24 Rue Victor Hugo, La Rivière-de-Corps, France","Phone":"0325742650","ATT":"Aurelie HUGOT-JEANNARD","TMS":"TMS 10","Statut":"Ouvertes","Latitude":"48.2848735","Longitude":"4.0283376","Type":"ESMS"},{"Name":"KORIAN VILLA GABRIEL","Address":"20 Avenue Favard, Gradignan, France","Phone":"0557962828","ATT":"Alexandra Malartre","TMS":"TMS ESMS (cabinet virtuel)","Statut":"Ouvertes","Latitude":"44.7837354","Longitude":"-0.6002187999999999","Type":"ESMS"},{"Name":"KORIAN TERRASSES DU XXème","Address":"5 Rue de l'Indre, Paris, France","Phone":"0144623600","ATT":"Alexandra Malartre","TMS":"TMS ESMS (cabinet virtuel)","Statut":"Ouvertes","Latitude":"48.8629997","Longitude":"2.4034231","Type":"ESMS"},{"Name":"20 - EMEIS Résidence La Tour Pujols - Villeneuve sur Lot","Address":"1 Av. Ernest Lafont, 47300 Villeneuve-sur-Lot, France","Phone":"0553497000","ATT":"Alexandra Malartre","TMS":"TMS ESMS Emeis","Statut":"Ouvertes","Latitude":"44.4026961","Longitude":"0.7010325","Type":"ESMS"},{"Name":"KORIAN LE CHALET","Address":"7 Route de L'Aurignolle, 33830 Belin-Béliet, France","Phone":"0556880186","ATT":"Alexandra Malartre","TMS":"TMS ESMS (cabinet virtuel)","Statut":"Ouvertes","Latitude":"44.5176154","Longitude":"-0.7894753","Type":"ESMS"},{"Name":"Cabinet IDEL La roseraie Quettreville sur Sienne","Address":"17d Rue du Mont Saint-Michel, Quettreville-sur-Sienne, France","Phone":"0688975124","ATT":"Pichard Jean-Baptiste","TMS":"TMS 14","Statut":"Ouvertes","Latitude":"48.9680001","Longitude":"-1.4692877","Type":"Cabinet Infirmier"},{"Name":"KORIAN YVAN ROQUE","Address":"42, TOUR DE VILLE SUD 24560 ISSIGEAC","Phone":"0553746400","ATT":"Alexandra Malartre","TMS":"TMS ESMS (cabinet virtuel)","Statut":"Ouvertes","Latitude":"44.7287736","Longitude":"0.6080009","Type":"ESMS"},{"Name":"CRT Sud Essonne","Address":"26 Rue du Vivier, Champcueil, France","Phone":"0164997608","ATT":"Aurelie HUGOT-JEANNARD","TMS":"TMS 10","Statut":"Ouvertes","Latitude":"48.517131","Longitude":"2.4485557","Type":"ESMS"},{"Name":"MEDICOBUS 18","Address":"Place du Marché, 18310 Graçay, France","Phone":"","ATT":"Cécile ABA'ANE","TMS":"TMS 18","Statut":"Telesecretariat OMEDYS","Latitude":"47.1422324","Longitude":"1.8454021","Type":"véhicule de télémédecine assitée"},{"Name":"CAB IDEL Vierzon DAGOUSSET/DURAND/DIAZ (Mallette 11 CPTS BVS)","Address":"9 RUE RASPAIL 18100 VIERZON","Phone":"","ATT":"Cécile ABA'ANE","TMS":"TMS 18","Statut":"Telesecretariat OMEDYS","Latitude":"47.2242342","Longitude":"2.0731387","Type":"Cabinet Infirmier"},{"Name":"CAB IDEL Vierzon OGER/GAUCHER/REDOUIN (Mallette 12 CPTS BVS)","Address":"26 Av. Edouard Vaillant, 18100 Vierzon, France","Phone":"","ATT":"Cécile ABA'ANE","TMS":"TMS 18","Statut":"Telesecretariat OMEDYS","Latitude":"47.2311555","Longitude":"2.0609082","Type":"Cabinet Infirmier"},{"Name":"CAB IDEL MÉREAU (Mallette 05 CPTS BVS)","Address":"16 AVENUE D'ISSOUDUN 18120 MEREAU","Phone":"","ATT":"Cécile ABA'ANE","TMS":"TMS 18","Statut":"Telesecretariat OMEDYS","Latitude":"47.16280709999999","Longitude":"2.0496858","Type":"Cabinet Infirmier"},{"Name":"CAB IDEL FOËCY (Mallette 10 CPTS BVS)","Address":"2 Rue Jean Lothe, 18500 Foëcy, France","Phone":"","ATT":"Cécile ABA'ANE","TMS":"TMS 18","Statut":"Telesecretariat OMEDYS","Latitude":"47.1763083","Longitude":"2.1619502","Type":"Cabinet Infirmier"},{"Name":"CAB IDEL ARGENT SUR SAULDRE (Mallette 08 CPTS BVS)","Address":"10 BOULEVARD DE LA REPUBLIQUE 18410 ARGENT SUR SAULDRE","Phone":"","ATT":"Cécile ABA'ANE","TMS":"TMS 18","Statut":"Telesecretariat OMEDYS","Latitude":"47.5584928","Longitude":"2.4463792","Type":"Cabinet Infirmier"},{"Name":"CAB IDEL SURY AUX BOIS  (45)","Address":"4 RUE DE LA BROSSE ROBIN 45530 SURY AUX BOIS","Phone":"","ATT":"Cécile ABA'ANE","TMS":"TMS 18","Statut":"Telesecretariat OMEDYS","Latitude":"47.9662884","Longitude":"2.341277","Type":"Cabinet Infirmier"},{"Name":"MEDIBUS 45 Loiret Santé","Address":"2 RTE D ORLEANS 45160 DARVOY","Phone":"0238254535","ATT":"Cécile ABA'ANE","TMS":"TMS 18","Statut":"Telesecretariat OMEDYS","Latitude":"47.8638","Longitude":"2.0962679","Type":"véhicule de télémédecine assitée"},{"Name":"ODYS 18","Address":"Bourges, France","Phone":"","ATT":"Cécile ABA'ANE","TMS":"TMS 18","Statut":"Telesecretariat OMEDYS","Latitude":"47.0812405","Longitude":"2.3979615","Type":"ODYS"},{"Name":"Cabinet IDEL : Chauveau Corinne et Parpet Ines","Address":"12 Rue du Docteur Michel Gibert, Chartres, France","Phone":"0671089746","ATT":"Mélanie Chevé","TMS":"TMS 28","Statut":"Telesecretariat OMEDYS","Latitude":"48.4432462","Longitude":"1.4822896","Type":"Cabinet Infirmier"},{"Name":"Cabinet IDEL : Collin Pamela et Guizouarn Lechat","Address":"1 Rue Chauveau Lagarde, Chartres, France","Phone":"0650992382","ATT":"Mélanie Chevé","TMS":"TMS 28","Statut":"Telesecretariat OMEDYS","Latitude":"48.4447144","Longitude":"1.4772375","Type":"Cabinet Infirmier"},{"Name":"Cabinet IDEL : Goret Sophie et Lhemeray Magalie","Address":"8 Rue des Bouchers, Chartres, France","Phone":"0612991562","ATT":"Mélanie Chevé","TMS":"TMS 28","Statut":"Telesecretariat OMEDYS","Latitude":"48.4435158","Longitude":"1.4870187","Type":"Cabinet Infirmier"},{"Name":"Centre de santé  de Bouin","Address":"5 Rue du Grain d'Or, Bouin, France","Phone":"0619183966","ATT":"","TMS":"TMS 85","Statut":"Telesecretariat OMEDYS","Latitude":"46.9749757","Longitude":"-2.0014727","Type":"Salle collectivité"},{"Name":"EHPAD LA REPOSANCE (ouvert au public)","Address":"1 Place du Cantal, 72100 Le Mans, France","Phone":"0243842771","ATT":"Mélanie Chevé","TMS":"TMS 72","Statut":"Telesecretariat OMEDYS","Latitude":"47.9938755","Longitude":"0.2215027","Type":"CPTS"},{"Name":"EHPAD LA ROSERAIE GESTÉ (ouvert au public)","Address":"3 Rue de la Garenne, Beaupréau-en-Mauges, France","Phone":"0241752480","ATT":"Aurelie HUGOT-JEANNARD","TMS":"TMS 10","Statut":"Telesecretariat OMEDYS","Latitude":"47.20213","Longitude":"-0.9928319","Type":"CPTS"},{"Name":"IDE VILLIERS EN LIEU","Address":"1 PLACE DE L'ÉGLISE 52100 VILLIERS EN LIEU","Phone":"","ATT":"Aurelie HUGOT-JEANNARD","TMS":"TMS 10","Statut":"Telesecretariat OMEDYS","Latitude":"48.666404","Longitude":"4.8999279","Type":"Cabinet Infirmier"},{"Name":"IDEL au sein de la Maison Médicale - ECLARON","Address":"19 Rue de L Hôpital 52290 Éclaron-Braucourt-Sainte-Livière","Phone":"","ATT":"Aurelie HUGOT-JEANNARD","TMS":"TMS 10","Statut":"Telesecretariat OMEDYS","Latitude":"48.5907363","Longitude":"4.8629542","Type":"Cabinet Infirmier"},{"Name":"IDEL LOUZE, pays Dervois","Address":"Mairie, 44 D400 derrière l'Eglise  louze pays dervois","Phone":"","ATT":"Aurelie HUGOT-JEANNARD","TMS":"TMS 10","Statut":"Telesecretariat OMEDYS","Latitude":"48.4322891","Longitude":"4.7114406","Type":"Cabinet Infirmier"},{"Name":"IDELs CPTS BC (Maison Médicale de Garde)","Address":"6 RUE DEODAT DE SEVERAC, 11000 CARCASSONNE","Phone":"0468113673","ATT":"Blandine CHOPIN","TMS":"TMS 31","Statut":"Telesecretariat OMEDYS","Latitude":"43.2123681","Longitude":"2.3633878","Type":"Cabinet Infirmier"},{"Name":"IDELS/salle dédiée à SAINT SULPICE LA POINTE (81)","Address":"81370 Saint-Sulpice-la-Pointe, France","Phone":"0676941001","ATT":"Blandine CHOPIN","TMS":"TMS 31","Statut":"Telesecretariat OMEDYS","Latitude":"43.771216","Longitude":"1.6867836","Type":"Salle collectivité"},{"Name":"MAISON MEDICALE DE CHAMPAGNÉ","Address":"2 RUE LOUIS PASTEUR 72470 CHAMPAGNE","Phone":"","ATT":"Mélanie Chevé","TMS":"TMS 72","Statut":"Telesecretariat OMEDYS","Latitude":"48.0231351","Longitude":"0.3326137000000001","Type":"CDS/MSP/CM"},{"Name":"ODYS 72 Visio simple","Address":"41 Avenue Frédéric Auguste Bartholdi, Le Mans, France","Phone":"","ATT":"Mélanie Chevé","TMS":"TMS 72","Statut":"Telesecretariat OMEDYS","Latitude":"48.0202126","Longitude":"0.1562481","Type":"ODYS"},{"Name":"PHARMACIE DE L'EUROPE","Address":"9 RUE DE MONES DEL PUJOL 31600 MURET","Phone":"0561511352","ATT":"Blandine CHOPIN","TMS":"TMS 31","Statut":"Telesecretariat OMEDYS","Latitude":"43.4658863","Longitude":"1.3314147","Type":"Pharmacie"},{"Name":"PHARMACIE DE LHERM","Address":"7 AVENUE 7 AVENUE DE GASCOGNE 31600 LHERM","Phone":"0561560074","ATT":"Blandine CHOPIN","TMS":"TMS 31","Statut":"Telesecretariat OMEDYS","Latitude":"43.42934200000001","Longitude":"1.221483","Type":"Pharmacie"},{"Name":"POLE DE SANTÉ ANTENNE DE HAUTEVILLE","Address":"11 PLACE MOZART 14100 LISIEUX","Phone":"","ATT":"Pichard Jean-Baptiste","TMS":"TMS 14","Statut":"Telesecretariat OMEDYS","Latitude":"49.1437478","Longitude":"0.2544485","Type":"CDS/MSP/CM"},{"Name":"PSLA DU PAYS DE LIVAROT","Address":"13-15 Rés Georges Leroy, 14140 Livarot-Pays-d'Auge, France","Phone":"","ATT":"Pichard Jean-Baptiste","TMS":"TMS 14","Statut":"Telesecretariat OMEDYS","Latitude":"49.0077842","Longitude":"0.1495247","Type":"CDS/MSP/CM"},{"Name":"PSLA ORBEC","Address":"1 Rue Josias Bérault, Orbec, France","Phone":"","ATT":"Pichard Jean-Baptiste","TMS":"TMS 14","Statut":"Telesecretariat OMEDYS","Latitude":"49.020467","Longitude":"0.4050880000000001","Type":"CDS/MSP/CM"},{"Name":"RESEAU DE SANTE LE MANS OUEST","Address":"5 Boulevard PAUL CHANTREL 72000 LE MANS","Phone":"","ATT":"Mélanie Chevé","TMS":"TMS 72","Statut":"Telesecretariat OMEDYS","Latitude":"48.01191600000001","Longitude":"0.1821581","Type":"CDS/MSP/CM"},{"Name":"RÉSIDENCE AMBROISE CROIZAT","Address":"2 Rue des Tours, 52100 Saint-Dizier, France","Phone":"","ATT":"Aurelie HUGOT-JEANNARD","TMS":"TMS 10","Statut":"Telesecretariat OMEDYS","Latitude":"48.6448194","Longitude":"4.9768941","Type":"Foyer d'accueil"},{"Name":"SABRINA ZAKRZEWSKA","Address":"2 CHEMIN DU PRADAS 31410 MAUZAC","Phone":"0615341326","ATT":"Blandine CHOPIN","TMS":"TMS 31","Statut":"Telesecretariat OMEDYS","Latitude":"43.3804082","Longitude":"1.2826726","Type":"Cabinet Infirmier"},{"Name":"SALLE COMMUNALE REMILLY LES MARAIS","Address":"8 Rue André Leduc, Remilly Les Marais, France","Phone":"","ATT":"Pichard Jean-Baptiste","TMS":"TMS 14","Statut":"Telesecretariat OMEDYS","Latitude":"49.17885889999999","Longitude":"-1.2592647","Type":"Salle collectivité"},{"Name":"SALLE COMMUNALE SAINT GEORGES DE ROUELLEY","Address":"125 Route Napoléon, 50720 Saint-Georges-de-Rouelley, France","Phone":"","ATT":"Pichard Jean-Baptiste","TMS":"TMS 14","Statut":"Telesecretariat OMEDYS","Latitude":"48.60428","Longitude":"-0.7658849999999999","Type":"Salle collectivité"},{"Name":"EHPAD RESIDENCES DE L'EVRE JALLAIS (ouvert au public)","Address":"45 Av. Chaperonnière, Beaupréau-en-Mauges, France","Phone":"0241641045","ATT":"Aurelie HUGOT-JEANNARD","TMS":"TMS 10","Statut":"Telesecretariat OMEDYS","Latitude":"47.1966265","Longitude":"-0.8741028999999999","Type":"CPTS"},{"Name":"MARPA DU CANTON DE THEZE Chariot","Address":"64450 Thèze, France","Phone":"0559043900","ATT":"Blandine CHOPIN","TMS":"TMS 31","Statut":"Telesecretariat OMEDYS","Latitude":"43.476141","Longitude":"-0.348073","Type":"Foyer d'accueil"},{"Name":"Cabinet IDEL : Bousquié Aurélie et Doudin Marie","Address":"6 Pl. de la Laiterie, Saint-Georges-sur-Eure, France","Phone":"0620520014","ATT":"Mélanie Chevé","TMS":"TMS 28","Statut":"Telesecretariat OMEDYS","Latitude":"48.4192379","Longitude":"1.354648","Type":"Cabinet Infirmier"},{"Name":"Cab IDEL : Severine Coispeau","Address":"6 Avenue de la Gare, Jouy, France","Phone":"0632447621","ATT":"Mélanie Chevé","TMS":"TMS 28","Statut":"Telesecretariat OMEDYS","Latitude":"48.5120015","Longitude":"1.5524664","Type":"Cabinet Infirmier"},{"Name":"Cabinet IDELS TORRESIN/COSSON","Address":"4 Rue du Midi, Léguevin, France","Phone":"0617758051","ATT":"Blandine CHOPIN","TMS":"TMS 31","Statut":"Telesecretariat OMEDYS","Latitude":"43.5990476","Longitude":"1.2299413","Type":"Cabinet Infirmier"},{"Name":"RESIDENCE SENIOR LA VISITATION (ouvert au public)","Address":"11 RUE BARBIER 72000 LE MANS","Phone":"0285297460","ATT":"Mélanie Chevé","TMS":"TMS 72","Statut":"Telesecretariat OMEDYS","Latitude":"48.0035338","Longitude":"0.1936906","Type":"ESMS"},{"Name":"BUCHERES - salle de Troyes Champagne Métropole","Address":"salle \"la Passerelle\", Mairie de Buchères, France","Phone":"0325418712","ATT":"Aurelie HUGOT-JEANNARD","TMS":"TMS 10","Statut":"Telesecretariat OMEDYS","Latitude":"48.23569","Longitude":"4.112636","Type":"Cabinet Infirmier"},{"Name":"IDELS MSP PLEURS","Address":"54 RUE DU  GÉNÉRAL LECLERC 51230 PLEURS","Phone":"33326805941","ATT":"Aurelie HUGOT-JEANNARD","TMS":"TMS 10","Statut":"Telesecretariat OMEDYS","Latitude":"48.6953128","Longitude":"3.8740177","Type":"Cabinet Infirmier"},{"Name":"MAISON MEDICALE ESTISSAC - TCM","Address":"Rue de la République, 10190 Estissac, France","Phone":"0325404349","ATT":"Aurelie HUGOT-JEANNARD","TMS":"TMS 10","Statut":"Telesecretariat OMEDYS","Latitude":"48.2708178","Longitude":"3.8053888","Type":"CDS/MSP/CM"},{"Name":"MSP Montesquieu - IDELs/CPTS Volvestre-Cœur de Garonne","Address":"2 Rue Joseph Monnereau, 31310 Montesquieu-Volvestre, France","Phone":"0695546903","ATT":"Blandine CHOPIN","TMS":"TMS 31","Statut":"Telesecretariat OMEDYS","Latitude":"43.205285","Longitude":"1.233029","Type":"CPTS"},{"Name":"SALLE MAIRIE DE BOUCHAIN","Address":"16 Rue Camille Corot, Bouchain, France","Phone":"0327217121","ATT":"Virginie PRUVOT","TMS":"TMS 59","Statut":"Telesecretariat OMEDYS","Latitude":"50.2900887","Longitude":"3.3183734","Type":"Salle collectivité"},{"Name":"SALLE MAIRIE MAING","Address":"Mairie de Maing, 82 Rue Jean Jaurès, Maing, France","Phone":"0327244639","ATT":"Virginie PRUVOT","TMS":"TMS 59","Statut":"Telesecretariat OMEDYS","Latitude":"50.3076996","Longitude":"3.48292","Type":"Salle collectivité"},{"Name":"SALLES MAIRIE DE DOUCHY-LES-MINES","Address":"18 Avenue Julien Renard, Douchy-les-Mines, France","Phone":"0327222222","ATT":"Virginie PRUVOT","TMS":"TMS 59","Statut":"Telesecretariat OMEDYS","Latitude":"50.3002413","Longitude":"3.3922101","Type":"Salle collectivité"},{"Name":"CAB Médical de Morée","Address":"1 Rue des Soupirs, 41160 Morée, France","Phone":"0254826064","ATT":"Cécile ABA'ANE","TMS":"TMS 41","Statut":"Telesecretariat OMEDYS","Latitude":"47.9040459","Longitude":"1.23543","Type":"Cabinet Infirmier"},{"Name":"CABINET MEDICAL de Droué","Address":"Place de la Gare, 41270 Droué, France","Phone":"0786084448","ATT":"Cécile ABA'ANE","TMS":"TMS 41","Statut":"Telesecretariat OMEDYS","Latitude":"48.0432512","Longitude":"1.0726805","Type":"CDS/MSP/CM"},{"Name":"CAB IDEL MAILLY LE CAMP NATHALIE DOERLER","Address":"1 RUE DES TONNELLES 10230 MAILLY LE CAMP","Phone":"0688870194","ATT":"Aurelie HUGOT-JEANNARD","TMS":"TMS 10","Statut":"Inactives","Latitude":"48.671366","Longitude":"4.1951997","Type":"Cabinet Infirmier"},{"Name":"CAB IDEL REUILLY (Mallette 09 CPTS BVS)","Address":"1 RUE VICTOR HUGO 36260 REUILLY","Phone":"","ATT":"Cécile ABA'ANE","TMS":"TMS 18","Statut":"Inactives","Latitude":"47.08514590000001","Longitude":"2.0425226","Type":"Cabinet Infirmier"},{"Name":"CABINET IDELS MR FRANCOIS À CONFLANS-SUR-SEINE (51)","Address":"2B AVENUE  MARÉCHAL LECLERC 51260 CONFLANS-SUR-SEINE","Phone":"","ATT":"Aurelie HUGOT-JEANNARD","TMS":"TMS 10","Statut":"Inactives","Latitude":"48.5523074","Longitude":"3.6805629","Type":"Cabinet Infirmier"},{"Name":"CABINET MÉDICAL DU DOCTEUR EUTROPE","Address":"RUE COMMERCE RESIDENCE 97600 MAYOTTE","Phone":"","ATT":"Aurelie HUGOT-JEANNARD","TMS":"TMS 10","Statut":"Inactives","Latitude":"-12.7821628","Longitude":"45.2300101","Type":"CDS/MSP/CM"},{"Name":"CENTRE PENITENTIAIRE MAYOTTE - EPVS MAJICVO LAMIR","Address":"Koungou 97600, Mayotte","Phone":"","ATT":"Vera Bernard","TMS":"TMS 55","Statut":"Inactives","Latitude":"-12.779684","Longitude":"45.1962533","Type":"Salle collectivité"},{"Name":"CPTS TCM Valise 1","Address":"Troyes, France","Phone":"","ATT":"Aurelie HUGOT-JEANNARD","TMS":"TMS 10","Statut":"Inactives","Latitude":"48.2975056","Longitude":"4.0746921","Type":"CPTS"},{"Name":"EHPAD \" LA MAISON DES MIRABELLIERS \"","Address":"4 RUE DU COMMANDANT SPICQ 54720 LEXY","Phone":"","ATT":"Vera Bernard","TMS":"TMS 55","Statut":"Inactives","Latitude":"49.499874","Longitude":"5.733559199999999","Type":"ESMS"},{"Name":"EHPAD BEAULIEU","Address":"15 Rue DU BON PASTEUR 72018 LE MANS CEDEX 2","Phone":"0243247211","ATT":"Mélanie Chevé","TMS":"TMS 72","Statut":"Inactives","Latitude":"48.0134901","Longitude":"0.1950549","Type":"ESMS"},{"Name":"EHPAD EMERA BERENGERE","Address":"1 Rue SAINT BERTRAND 72000 LE MANS","Phone":"0243547500","ATT":"Mélanie Chevé","TMS":"TMS 72","Statut":"Inactives","Latitude":"48.0021706","Longitude":"0.2027173","Type":"ESMS"},{"Name":"EHPAD OSIER POURPRE","Address":"1 PLACE EUGÈNE GRASSET 52000 CHAUMONT","Phone":"0325024600","ATT":"Aurelie HUGOT-JEANNARD","TMS":"TMS 10","Statut":"Inactives","Latitude":"48.0966988","Longitude":"5.141632299999999","Type":"ESMS"},{"Name":"EHPAD POUGNY à Doulaincourt-Saucourt","Address":"4 RUE POUGNY 52270 DOULAINCOURT-SAUCOURT","Phone":"0325946165","ATT":"Aurelie HUGOT-JEANNARD","TMS":"TMS 10","Statut":"Inactives","Latitude":"48.3234202","Longitude":"5.2048155","Type":"ESMS"},{"Name":"EHPAD RESIDENCE TRAMONTANE","Address":"AVENUE DU GENERAL DE GAULLE 11370 LEUCATE","Phone":"","ATT":"Blandine CHOPIN","TMS":"TMS 11","Statut":"Inactives","Latitude":"42.9060726","Longitude":"3.0414948","Type":"ESMS"},{"Name":"EHPAD/MAS/Foyer de Vie CENTRE BASILE MOREAU FRERE ANDRE","Address":"27 Rue DE DURTAL 72300 PRECIGNE","Phone":"0243622121","ATT":"Mélanie Chevé","TMS":"TMS 72","Statut":"Inactives","Latitude":"47.7646691","Longitude":"-0.3211043","Type":"ESMS"},{"Name":"EMA EQUIPE MOBILE ASALÉE","Address":"12 RUE DE L'HÔTEL DE VILLE 55230 SPINCOURT","Phone":"","ATT":"Vera Bernard","TMS":"TMS 55","Statut":"Inactives","Latitude":"49.3292464","Longitude":"5.6669234","Type":"Cabinet Infirmier"},{"Name":"ESAT - BOIS L'ABBESSE","Address":"CHEMIN DE L'ARGENTÉ LIGNE 52100 BETTANCOURT LA FERRÉE","Phone":"0325064218","ATT":"Aurelie HUGOT-JEANNARD","TMS":"TMS 10","Statut":"Inactives","Latitude":"48.6207013","Longitude":"4.9531389","Type":"Foyer d'accueil"},{"Name":"FAM APAJH ROMILLY-SUR-SEINE","Address":"116 AVENUE JEAN JAURÈS 10120 ROMILLY SUR SEINE","Phone":"0325219926","ATT":"Aurelie HUGOT-JEANNARD","TMS":"TMS 10","Statut":"Inactives","Latitude":"48.515552","Longitude":"3.710502","Type":"Foyer d'accueil"},{"Name":"GAPSI","Address":"31 Rue Victor Hugo, 54590 Hussigny-Godbrange, France","Phone":"","ATT":"Vera Bernard","TMS":"TMS 55","Statut":"Inactives","Latitude":"49.4935068","Longitude":"5.8759076","Type":"Salle collectivité"},{"Name":"IDELS - DOMICILES- SECTEUR TRIAUCOURT \"ODYS\" MARLENE CLAUS","Address":"4 RUE JEANNE GEORGES 55250 SEUIL D ARGONNE","Phone":"","ATT":"Vera Bernard","TMS":"TMS 55","Statut":"Inactives","Latitude":"48.9785422","Longitude":"5.061359599999999","Type":"Cabinet Infirmier"},{"Name":"IME - BOIS L'ABBESSE","Address":"CHEMIN DE L'ARGENTÉ LIGNE 52100 SAINT DIZIER","Phone":"0325064218","ATT":"Aurelie HUGOT-JEANNARD","TMS":"TMS 10","Statut":"Inactives","Latitude":"48.6207013","Longitude":"4.9531389","Type":"Foyer d'accueil"},{"Name":"MAISON DU PRE SAINT CHARLES","Address":"21 RUE DE LA MEUSE 54135 HAUCOURT-MOULAINE","Phone":"","ATT":"Vera Bernard","TMS":"TMS 55","Statut":"Inactives","Latitude":"49.515548","Longitude":"5.806736300000001","Type":"ESMS"},{"Name":"MSP DE VERDUN","Address":"13 PLACE ST PAUL 55100 VERDUN","Phone":"","ATT":"Vera Bernard","TMS":"TMS 55","Statut":"Inactives","Latitude":"49.1638174","Longitude":"5.384106099999999","Type":"CDS/MSP/CM"},{"Name":"MSP DOULCON","Address":"5BIS PLACE DE LA GARE 55165 DOULCON","Phone":"","ATT":"Vera Bernard","TMS":"TMS 55","Statut":"Inactives","Latitude":"49.3834004","Longitude":"5.176752899999999","Type":"CDS/MSP/CM"},{"Name":"SSIAD ADMR DE L'AUBE","Address":"13  RUE  DES PRÉS DE LYON, 10600 LA CHAPELLE-SAINT-LUC","Phone":"","ATT":"Aurelie HUGOT-JEANNARD","TMS":"TMS 10","Statut":"Inactives","Latitude":"48.3118016","Longitude":"4.025304000000001","Type":"Cabinet Infirmier"},{"Name":"FOYER ADASMS LA PORTE DU DER","Address":"62 AVENUE DE CHAMPAGNE 52200 LA PORTE DU DER","Phone":"","ATT":"Vera Bernard","TMS":"TMS 55","Statut":"Inactives","Latitude":"48.4864556","Longitude":"4.7610819","Type":"Foyer d'accueil"},{"Name":"KORIAN LES MYRTILLES","Address":"65 CHEMIN DES ECUREILS, 74190, PASSY","Phone":"0450936411","ATT":"Alexandra Malartre","TMS":"TMS ESMS (cabinet virtuel)","Statut":"Inactives","Latitude":"45.9274557","Longitude":"6.717518999999999","Type":"ESMS"},{"Name":"KORIAN BERGSON","Address":"1 AVENUE DE VERDUN, 42000, SAINT-ETIENNE","Phone":"0477915950","ATT":"Alexandra Malartre","TMS":"TMS ESMS (cabinet virtuel)","Statut":"Inactives","Latitude":"45.4629974","Longitude":"4.3801725","Type":"ESMS"},{"Name":"KORIAN GRANGES DES PRES","Address":"6 Avenue de la Libération 60260 LAMORLAYE","Phone":"0344213599","ATT":"Alexandra Malartre","TMS":"TMS ESMS (cabinet virtuel)","Statut":"Inactives","Latitude":"49.1478744","Longitude":"2.4432195","Type":"ESMS"},{"Name":"KORIAN JARDIN DE L'ANDELLE","Address":"17 Rue des Champs, 27910 Perriers-sur-Andelle, France","Phone":"0232497661","ATT":"Pichard Jean-Baptiste","TMS":"TMS 14","Statut":"Inactives","Latitude":"49.41622","Longitude":"1.36878","Type":"ESMS"},{"Name":"KORIAN L'ISLE VERTE","Address":"50 RUE DU MORTILLET 38000 GRENOBLE","Phone":"0476636300","ATT":"Alexandra Malartre","TMS":"TMS ESMS (cabinet virtuel)","Statut":"Inactives","Latitude":"45.1980373","Longitude":"5.7344301","Type":"ESMS"},{"Name":"KORIAN LA CROIX DU MARECHAL","Address":"14 IMPASSE DE RECOUX 16800 SOYAUX","Phone":"0545948900","ATT":"Alexandra Malartre","TMS":"TMS ESMS (cabinet virtuel)","Statut":"Inactives","Latitude":"45.6489215","Longitude":"0.209787","Type":"ESMS"},{"Name":"KORIAN LA GRANDE PRAIRIE","Address":"2 Rue de la Croix Blanche 60290 MONCHY SAINT ELOI","Phone":"0344313100","ATT":"Alexandra Malartre","TMS":"TMS ESMS (cabinet virtuel)","Statut":"Inactives","Latitude":"49.2996663","Longitude":"2.4667171","Type":"ESMS"},{"Name":"KORIAN LE DIAMANT","Address":"34 RUE DU COTEAU DE LA BRIANTE 61000 ALENCON","Phone":"0233824848","ATT":"Pichard Jean-Baptiste","TMS":"TMS 14","Statut":"Inactives","Latitude":"48.4343707","Longitude":"0.0673537","Type":"ESMS"},{"Name":"KORIAN LE RICHELIEU","Address":"96 Bd des Belges, 85000 La Roche-sur-Yon","Phone":"0251242400","ATT":"Alexandra Malartre","TMS":"TMS ESMS (cabinet virtuel)","Statut":"Inactives","Latitude":"46.67486239999999","Longitude":"-1.4229689","Type":"ESMS"},{"Name":"KORIAN LES ALPILLES","Address":"RUE HILAIRE TOUCHE 13127 VITROLLES","Phone":"0442899379","ATT":"Alexandra Malartre","TMS":"TMS ESMS (cabinet virtuel)","Statut":"Inactives","Latitude":"43.446001","Longitude":"5.2501429","Type":"ESMS"},{"Name":"KORIAN LES AURELIAS","Address":"358, CHEMIN DES PRESLES, 69290, POLLIONNAY","Phone":"0478874242","ATT":"Alexandra Malartre","TMS":"TMS ESMS (cabinet virtuel)","Statut":"Inactives","Latitude":"45.7618209","Longitude":"4.6572552","Type":"ESMS"},{"Name":"KORIAN VILLA EVORA","Address":"24 RUE DU GÉNÉRAL GEORGE PATTON 28000 CHARTRES","Phone":"0237911666","ATT":"Mélanie Chevé","TMS":"TMS 28","Statut":"Inactives","Latitude":"48.4422504","Longitude":"1.4748593","Type":"ESMS"},{"Name":"KORIAN PASTORIA","Address":"39 AVENUE PASTEUR 10000 TROYES","Phone":"0325490222","ATT":"Aurelie HUGOT-JEANNARD","TMS":"TMS 10","Statut":"Inactives","Latitude":"48.3009385","Longitude":"4.0642844","Type":"ESMS"},{"Name":"MGEN - MAYOTTE","Address":"RUE L'ARCHIPEL 97605 MAYOTTE","Phone":"","ATT":"Aurelie HUGOT-JEANNARD","TMS":"TMS 10","Statut":"Inactives","Latitude":"-12.7736143","Longitude":"45.2248212","Type":"MGEN"},{"Name":"KORIAN CROIX PERIGOURD","Address":"108 Rue de la Croix Perigourd 37540 St CYR SUR LOIRE","Phone":"0247624389","ATT":"Cécile ABA'ANE","TMS":"TMS 18","Statut":"Inactives","Latitude":"47.4172088","Longitude":"0.6564202","Type":"ESMS"},{"Name":"CAB IDEL Vierzon - LOONTJENS/ROUSSEAU (Mallette 06 CPTS BVS)","Address":"13 RUE PIERRE DEBOURNOU 18100 VIERZON","Phone":"0652593906","ATT":"Cécile ABA'ANE","TMS":"TMS 18","Statut":"Inactives","Latitude":"47.2235114","Longitude":"2.0628186","Type":"Cabinet Infirmier"},{"Name":"CAB IDEL Neuvy sur Barangeon (Mallette 03 CPTS BVS)","Address":"1a Rue de L Hôpital, Neuvy-sur-Barangeon, France","Phone":"0681612439","ATT":"Cécile ABA'ANE","TMS":"TMS 18","Statut":"Inactives","Latitude":"47.3152498","Longitude":"2.2527097","Type":"Cabinet Infirmier"},{"Name":"KORIAN LE VENCAY","Address":"32 Rue des 11 Arpents, Saint-Avertin, France","Phone":"0247760220","ATT":"Cécile ABA'ANE","TMS":"TMS 18","Statut":"Inactives","Latitude":"47.362441","Longitude":"0.7496288","Type":"ESMS"},{"Name":"KORIAN LES PINS BLEUS","Address":"Ehpad Korian Les Pins Bleus, Domaine de St Elme - Route du Lazaret, Saint-Mandrier-sur-Mer, France","Phone":"33494110303","ATT":"Alexandra Malartre","TMS":"TMS ESMS (cabinet virtuel)","Statut":"Inactives","Latitude":"43.0786892","Longitude":"5.9108699","Type":"ESMS"},{"Name":"KORIAN LES BÉGONIAS","Address":"4 IMPASSE GERMAIN ETOURNEAU  17300 ROCHEFORT SUR MER","Phone":"0546876535","ATT":"Alexandra Malartre","TMS":"TMS ESMS (cabinet virtuel)","Statut":"Inactives","Latitude":"45.9330501","Longitude":"-0.9708782","Type":"ESMS"},{"Name":"KORIAN LES CASSISSINES","Address":"15 Rue Jean Giono 21000 DIJON","Phone":"0380601020","ATT":"Alexandra Malartre","TMS":"TMS ESMS (cabinet virtuel)","Statut":"Inactives","Latitude":"47.35434739999999","Longitude":"5.0511968","Type":"ESMS"},{"Name":"ASSOCIATION ARS NANCY","Address":"156 BOULEVARD D'AUSTRASIE 54000 NANCY","Phone":"","ATT":"Vera Bernard","TMS":"TMS 55","Statut":"Fermees ou refus OTT","Latitude":"48.6880213","Longitude":"6.2047431","Type":"Salle collectivité"},{"Name":"CAB IDEL DEL Vierzon CASTILLO/DIAZ","Address":"2A BOULEVARD DE LA LIBERTE 18100 VIERZON","Phone":"","ATT":"Cécile ABA'ANE","TMS":"TMS 18","Statut":"Fermees ou refus OTT","Latitude":"47.2258693","Longitude":"2.0692213","Type":"Cabinet Infirmier"},{"Name":"CAB IDEL LURY SUR ARNON - CPTS BVS","Address":"5 RUE DE TOURS 18120 LURY SUR ARNON","Phone":"","ATT":"Cécile ABA'ANE","TMS":"TMS 18","Statut":"Fermees ou refus OTT","Latitude":"47.1268425","Longitude":"2.0568745","Type":"Cabinet Infirmier"},{"Name":"CAB IDEL Vierzon PERROT-SALLE","Address":"6 PASSAGE LEVEQUE 18100 VIERZON","Phone":"","ATT":"Cécile ABA'ANE","TMS":"TMS 18","Statut":"Fermees ou refus OTT","Latitude":"47.2283899","Longitude":"2.0525478","Type":"Cabinet Infirmier"},{"Name":"CABINET IDEL SALLE - ROMORANTIN","Address":"Romorantin-Lanthenay, France","Phone":"0676225005","ATT":"Cécile ABA'ANE","TMS":"TMS 18","Statut":"Fermees ou refus OTT","Latitude":"47.358657","Longitude":"1.747259","Type":"Cabinet Infirmier"},{"Name":"CADA CHAUMONT","Address":"13 RUE VICTOR FOURCAUT 52000 CHAUMONT","Phone":"0325311147","ATT":"Aurelie HUGOT-JEANNARD","TMS":"TMS 10","Statut":"Fermees ou refus OTT","Latitude":"48.1140311","Longitude":"5.1426181","Type":"Foyer d'accueil"},{"Name":"CAMBREMER CCSNP CAEN","Address":"Cambremer, France","Phone":"","ATT":"Non assigné","TMS":"Inconnu","Statut":"Fermees ou refus OTT","Latitude":"49.150643","Longitude":"0.048774","Type":"Salle collectivité"},{"Name":"CAP ESAT - ROMILLY SUR SEINE","Address":"11 QUAI  DE LA PALLÉE 10100 ROMILLY SUR SEINE","Phone":"","ATT":"Non assigné","TMS":"Inconnu","Statut":"Fermees ou refus OTT","Latitude":"48.524105","Longitude":"3.725678","Type":"Foyer d'accueil"},{"Name":"EHPAD  LES DUNES - ANNOVILLE","Address":"35 R PIERRE MICHEL D'ANNOVILLE 50660 ANNOVILLE","Phone":"+33233768300","ATT":"Non assigné","TMS":"Inconnu","Statut":"Fermees ou refus OTT","Latitude":"48.9674896","Longitude":"-1.5342853","Type":"ESMS"},{"Name":"EHPAD - SAINTE MERE EGLISE","Address":"11 R GENERAL GAVIN 50480 STE MERE EGLISE","Phone":"+33233413155","ATT":"Non assigné","TMS":"Inconnu","Statut":"Fermees ou refus OTT","Latitude":"49.4112902","Longitude":"-1.3145746","Type":"ESMS"},{"Name":"EHPAD \"AU BON ACCUEIL\" - SARTILLY BAIE","Address":"18 R DE LA CHâTELLERIE 50530 SARTILLY BAIE BOCAGE","Phone":"+33233896060","ATT":"Non assigné","TMS":"Inconnu","Statut":"Fermees ou refus OTT","Latitude":"48.7513762","Longitude":"-1.4531243","Type":"ESMS"},{"Name":"EHPAD \"DEMEURE DU BOIS ARDENT\"-ST LO","Address":"780 R DE L'EXODE 50000 ST LO","Phone":"+33233774545","ATT":"Non assigné","TMS":"Inconnu","Statut":"Fermees ou refus OTT","Latitude":"49.1041383","Longitude":"-1.0872199","Type":"ESMS"},{"Name":"EHPAD \"FONTAINE FLEURY\"-ST LO","Address":"84 R DU BOIS ARDENT 50000 ST LO","Phone":"+33214290060","ATT":"Non assigné","TMS":"Inconnu","Statut":"Fermees ou refus OTT","Latitude":"49.104307","Longitude":"-1.083568","Type":"ESMS"},{"Name":"EHPAD \"GEORGES PEUVREL\"-LA HAYE PESNEL","Address":"9 AV ERNEST CORBIN 50320 LA HAYE PESNEL","Phone":"+33233912323","ATT":"Non assigné","TMS":"Inconnu","Statut":"Fermees ou refus OTT","Latitude":"48.8008435","Longitude":"-1.3901823","Type":"ESMS"},{"Name":"EHPAD \"L'ABBAYE\"-CERISY LA FORET","Address":"13 AV II DIVISI INFAN INDIAN HEAD 50680 CERISY LA FORET","Phone":"+33233561336","ATT":"Non assigné","TMS":"Inconnu","Statut":"Fermees ou refus OTT","Latitude":"49.193827","Longitude":"-0.9368070000000001","Type":"ESMS"},{"Name":"EHPAD \"LA CLAIRIERE DES BERNARDINS\"","Address":"5 R DES BERNARDINS 50160 TORIGNY LES VILLES","Phone":"+33233772020","ATT":"Non assigné","TMS":"Inconnu","Statut":"Fermees ou refus OTT","Latitude":"49.0382496","Longitude":"-0.9843959000000001","Type":"ESMS"},{"Name":"EHPAD \"LE CLOS à€ FROMENT - LA GLACERIE","Address":"R PIERRE ET MARIE CURIE 50470 CHERBOURG EN COTENTIN","Phone":"+33233717100","ATT":"Non assigné","TMS":"Inconnu","Statut":"Fermees ou refus OTT","Latitude":"49.607932","Longitude":"-1.607975","Type":"ESMS"},{"Name":"EHPAD \"LE PARC FLEURI\" - CAMBERNON","Address":"L'HOTEL HEBERT 50200 CAMBERNON","Phone":"+33233455821","ATT":"Non assigné","TMS":"Inconnu","Statut":"Fermees ou refus OTT","Latitude":"49.0913435","Longitude":"-1.3830935","Type":"ESMS"},{"Name":"EHPAD \"LE VALLON\" - SAINT PAIR SUR MER","Address":"619 R DU BOCAGE 50380 ST PAIR SUR MER","Phone":"+33233791400","ATT":"Non assigné","TMS":"Inconnu","Statut":"Fermees ou refus OTT","Latitude":"48.811063","Longitude":"-1.557669","Type":"ESMS"},{"Name":"EHPAD \"LEMPERIERE\" - CERENCES","Address":"25 R PRINCIPALE 50510 CERENCES","Phone":"+33233519065","ATT":"Non assigné","TMS":"Inconnu","Statut":"Fermees ou refus OTT","Latitude":"48.9153819","Longitude":"-1.4372122","Type":"ESMS"},{"Name":"EHPAD \"LES ELIDES\" DU DEZERT","Address":"1  LA TOUPERRERIE 50620 LE DEZERT","Phone":"+33233053320","ATT":"Non assigné","TMS":"Inconnu","Statut":"Fermees ou refus OTT","Latitude":"49.2228037","Longitude":"-1.1372595","Type":"ESMS"},{"Name":"EHPAD \"LES JARDINS D'HENRIETTE\"","Address":"23 PL DE LA GARE 50610 JULLOUVILLE","Phone":"+33233912480","ATT":"Non assigné","TMS":"Inconnu","Statut":"Fermees ou refus OTT","Latitude":"48.773853","Longitude":"-1.5671759","Type":"ESMS"},{"Name":"EHPAD \"LES MERISIERS\" - BRECEY","Address":"1 BD DES MERISIERS 50370 BRECEY","Phone":"+33233681313","ATT":"Non assigné","TMS":"Inconnu","Statut":"Fermees ou refus OTT","Latitude":"48.7235836","Longitude":"-1.1605537","Type":"ESMS"},{"Name":"EHPAD \"LES QUATRE SAISONS\"","Address":"47 R DE LA FONTAINE ST PIERRE 50420 TESSY BOCAGE","Phone":"+33233553637","ATT":"Non assigné","TMS":"Inconnu","Statut":"Fermees ou refus OTT","Latitude":"48.97307559999999","Longitude":"-1.0641295","Type":"ESMS"},{"Name":"EHPAD \"PEREAU - LEJAMTEL\"-BREHAL","Address":"21 R DU RALLYE 50290 BREHAL","Phone":"+33233910101","ATT":"Non assigné","TMS":"Inconnu","Statut":"Fermees ou refus OTT","Latitude":"48.9009209","Longitude":"-1.518597","Type":"ESMS"},{"Name":"EHPAD \"RESIDENCE ANAIS DE GROUCY\"","Address":"10 R DE BASTOGNE 50190 PERIERS","Phone":"+33233763500","ATT":"Non assigné","TMS":"Inconnu","Statut":"Fermees ou refus OTT","Latitude":"49.1857789","Longitude":"-1.408952","Type":"ESMS"},{"Name":"EHPAD \"SAINT FRANCOIS\"-BARNEVILLE-CART","Address":"2 R JEANNE PROVOST 50270 BARNEVILLE CARTERET","Phone":"+33233100720","ATT":"Non assigné","TMS":"Inconnu","Statut":"Fermees ou refus OTT","Latitude":"49.3816328","Longitude":"-1.7550076","Type":"ESMS"},{"Name":"EHPAD \"SAINT-GABRIEL\" - GRANVILLE","Address":"54 R JEAN ROSTAND 50400 GRANVILLE","Phone":"+33233907876","ATT":"Non assigné","TMS":"Inconnu","Statut":"Fermees ou refus OTT","Latitude":"48.8318269","Longitude":"-1.569842","Type":"ESMS"},{"Name":"EHPAD DE CARQUEBUT","Address":"6 R JACQUES DESIRE PERROTTE 50480 STE MERE EGLISE","Phone":"+33233216180","ATT":"Non assigné","TMS":"Inconnu","Statut":"Fermees ou refus OTT","Latitude":"49.3696834","Longitude":"-1.3269845","Type":"ESMS"},{"Name":"EHPAD DEMEURE SAINT CLAIR","Address":"17 R DE LA LIBERATION 50680 ST CLAIR SUR L ELLE","Phone":"+33233778220","ATT":"Non assigné","TMS":"Inconnu","Statut":"Fermees ou refus OTT","Latitude":"49.1934793","Longitude":"-1.0276147","Type":"ESMS"},{"Name":"EHPAD DU VAL DE SAIRE - BARFLEUR","Address":"77 R SAINT THOMAS 50760 BARFLEUR","Phone":"+33233540222","ATT":"Non assigné","TMS":"Inconnu","Statut":"Fermees ou refus OTT","Latitude":"49.6690765","Longitude":"-1.2673573","Type":"ESMS"},{"Name":"EHPAD DU VAL DE SAIRE-ST VAAST","Address":"2 R DU 8 MAI 1945 50550 ST VAAST LA HOUGUE","Phone":"+33233544339","ATT":"Non assigné","TMS":"Inconnu","Statut":"Fermees ou refus OTT","Latitude":"49.1305925","Longitude":"-1.4130134","Type":"ESMS"},{"Name":"EHPAD ELISABETH DE SURVILLE - PICAUVIL","Address":"RTE DE SAINT SAUVEUR 50360 PICAUVILLE","Phone":"+33233218570","ATT":"Non assigné","TMS":"Inconnu","Statut":"Fermees ou refus OTT","Latitude":"49.3782493","Longitude":"-1.4248789","Type":"ESMS"},{"Name":"EHPAD GERARD DE HAULT SOMMEVOIRE","Address":"2 RUE DU CHATEAU 52220 SOMMEVOIRE","Phone":"0325552184","ATT":"Non assigné","TMS":"Inconnu","Statut":"Fermees ou refus OTT","Latitude":"48.4116055","Longitude":"4.8402495","Type":"ESMS"},{"Name":"EHPAD LA CÔTE DES CHARMES","Address":"RUE DU FOUR 52306 MANOIS","Phone":"","ATT":"Aurelie HUGOT-JEANNARD","TMS":"TMS 10","Statut":"Fermees ou refus OTT","Latitude":"48.2784264","Longitude":"5.3617008","Type":"ESMS"},{"Name":"EHPAD LA MAISON DES CERISIERS","Address":"14 ALLEE DE LA FRATERNITE 54590 HUSSIGNY GODBRANGE","Phone":"","ATT":"Vera Bernard","TMS":"TMS 55","Statut":"Fermees ou refus OTT","Latitude":"49.4932984","Longitude":"5.8666623","Type":"ESMS"},{"Name":"EHPAD LA PETITE VENISE","Address":"2 AVENUE DU GENERAL MARGUERITTE 08208 SEDAN CEDEX","Phone":"","ATT":"Non assigné","TMS":"Inconnu","Statut":"Fermees ou refus OTT","Latitude":"49.7049531","Longitude":"4.9382966","Type":"ESMS"},{"Name":"EHPAD LA RESIDENCE DE PINEY","Address":"17 RUE DU STADE 10220 PINEY","Phone":"","ATT":"Non assigné","TMS":"Inconnu","Statut":"Fermees ou refus OTT","Latitude":"48.3588034","Longitude":"4.3298043","Type":"ESMS"},{"Name":"Etablissemens médico-sociaux de Bouin","Address":"Rue du Pays de Retz, Bouin, France","Phone":"","ATT":"","TMS":"TMS 85","Statut":"Fermees ou refus OTT","Latitude":"46.974972","Longitude":"-1.9937129","Type":"ESMS"},{"Name":"FAM - L'ADRET","Address":"30 RUE ANNIE ET PIERRE MICAUX 10140 VENDEUVRE SUR BARSE","Phone":"","ATT":"Non assigné","TMS":"Inconnu","Statut":"Fermees ou refus OTT","Latitude":"48.23208899999999","Longitude":"4.458639","Type":"Foyer d'accueil"},{"Name":"FAM - SAINT BLIN BIZE","Address":"33 RUE D'HUMBERVILLE  52700 SAINT BLIN","Phone":"","ATT":"Non assigné","TMS":"Inconnu","Statut":"Fermees ou refus OTT","Latitude":"48.273182","Longitude":"5.406519299999999","Type":"Foyer d'accueil"},{"Name":"FOYER DE VIE BASILE MOREAU","Address":"28 Rue DE DURTAL 72300 PRECIGNE7","Phone":"0243622121","ATT":"Mélanie Chevé","TMS":"TMS 72","Statut":"Fermees ou refus OTT","Latitude":"47.7638891","Longitude":"-0.3202314","Type":"ESMS"},{"Name":"IDE ASALÉ","Address":"1BIS RUE PAUL CEZANNE 52100 SAINT DIZIER","Phone":"","ATT":"Non assigné","TMS":"Inconnu","Statut":"Fermees ou refus OTT","Latitude":"48.6429325","Longitude":"4.9691417","Type":"Cabinet Infirmier"},{"Name":"IDEL - VAL DE MEUSE","Address":"32 PLACE VERDUN 52140 MONTIGNY LE ROI","Phone":"","ATT":"Aurelie HUGOT-JEANNARD","TMS":"TMS 10","Statut":"Fermees ou refus OTT","Latitude":"47.9997887","Longitude":"5.4924955","Type":"Cabinet Infirmier"},{"Name":"IMANIS PENSION DE FAMILLE ET AJ - PRÉCARITÉ (Mallette 03 CPTS BVS)","Address":"26 RUE DE LA SOCIÉTÉ FRANÇAISE 18100 VIERZON","Phone":"","ATT":"Cécile ABA'ANE","TMS":"TMS 18","Statut":"Fermees ou refus OTT","Latitude":"47.2248391","Longitude":"2.0574076","Type":"Foyer d'accueil"},{"Name":"JEROME PUIG","Address":"3 PLACE SAINT NICOLAS 10130 ERVY LE CHATEL","Phone":"","ATT":"Aurelie HUGOT-JEANNARD","TMS":"TMS 10","Statut":"Fermees ou refus OTT","Latitude":"48.04126489999999","Longitude":"3.9120295","Type":"Cabinet Infirmier"},{"Name":"KORIAN FONTAINE BAZEILLE","Address":"18, ALLÉE DES FAUVETTES 47180 SAINTE BAZEILLE","Phone":"0553648600","ATT":"Blandine CHOPIN","TMS":"TMS 31","Statut":"Fermees ou refus OTT","Latitude":"44.5329752","Longitude":"0.09816799999999999","Type":"ESMS"},{"Name":"KORIAN LA RIMANDIÈRE","Address":"10, RUE ALPHONSE DAUDET 13310 SAINT MARTIN DE CRAU","Phone":"0490478500","ATT":"Alexandra Malartre","TMS":"TMS ESMS (cabinet virtuel)","Statut":"Fermees ou refus OTT","Latitude":"43.6342375","Longitude":"4.810121","Type":"ESMS"},{"Name":"MAS BASILE MOREAU","Address":"28 Rue DE DURTAL 72300 PRECIGNE","Phone":"0243622121","ATT":"Mélanie Chevé","TMS":"TMS 72","Statut":"Fermees ou refus OTT","Latitude":"47.7638891","Longitude":"-0.3202314","Type":"ESMS"},{"Name":"MAS LE VILLAGE","Address":"36 RUE RAYMOND CHASSEIGNE 10600 LA CHAPELLE -SAINT-LUC","Phone":"","ATT":"Non assigné","TMS":"Inconnu","Statut":"Fermees ou refus OTT","Latitude":"48.3252946","Longitude":"4.0487869","Type":"Foyer d'accueil"},{"Name":"MSP DE LA HAUTE MOSELOTTE CORNIMONT","Address":"RUE DU DAVAL 88310 CORNIMONT","Phone":"","ATT":"Vera Bernard","TMS":"TMS 55","Statut":"Fermees ou refus OTT","Latitude":"47.961894","Longitude":"6.8308263","Type":"CDS/MSP/CM"},{"Name":"ODYS 72 Visio assistée par IDEL","Address":"Le Mans, France","Phone":"","ATT":"Mélanie Chevé","TMS":"TMS 72","Statut":"Fermees ou refus OTT","Latitude":"48.00578669999999","Longitude":"0.2015378","Type":"ODYS"},{"Name":"PACT CENTRE D'HÉBERGEMENT ET DE RÉINSERTION SOCIALE DE TROYES","Address":"31 RUE GRAND VEON 10000 TROYES","Phone":"","ATT":"Aurelie HUGOT-JEANNARD","TMS":"TMS 10","Statut":"Fermees ou refus OTT","Latitude":"48.2939209","Longitude":"4.100567799999999","Type":"Foyer d'accueil"},{"Name":"PHARMACIE D'AIX","Address":"12 RUE PIERRE BROSSOLETTE 10160 AIX VILLEMAUR PALIS","Phone":"","ATT":"Non assigné","TMS":"Inconnu","Statut":"Fermees ou refus OTT","Latitude":"48.2229234","Longitude":"3.7335604","Type":"Pharmacie"},{"Name":"Pharmacie de BEAUCE Huet Roquais","Address":"50 Rue de la Mairie, 28360 Prunay-le-Gillon, France","Phone":"02237257258","ATT":"Mélanie Chevé","TMS":"TMS 28","Statut":"Fermees ou refus OTT","Latitude":"48.3620932","Longitude":"1.6342714","Type":"Pharmacie"},{"Name":"PHARMACIE DOUSSOT","Address":"24 AVENUE PIERRE GOMAND 10270 LUSIGNY SUR BARSE","Phone":"","ATT":"Non assigné","TMS":"Inconnu","Statut":"Fermees ou refus OTT","Latitude":"48.2538271","Longitude":"4.2597456","Type":"Pharmacie"},{"Name":"PHARMACIE DU CAVALIER/ Opta Fermée","Address":"50 AVENUE REPUBLIQUE 52000 CHAUMONT","Phone":"","ATT":"Non assigné","TMS":"Inconnu","Statut":"Fermees ou refus OTT","Latitude":"48.099791","Longitude":"5.1435682","Type":"Pharmacie"},{"Name":"PHARMACIE PITORT DEPRET À GESPUNSART (08)","Address":"35 RUE DE PUSSEMANGE 08700 GESPUNSART","Phone":"","ATT":"Vera Bernard","TMS":"TMS 55","Statut":"Fermees ou refus OTT","Latitude":"49.8205096","Longitude":"4.8314545","Type":"Pharmacie"},{"Name":"PHARMACIE VIERZON FORGES","Address":"70 RUE ETIENNE MARCEL 18100 VIERZON","Phone":"0248750934","ATT":"Cécile ABA'ANE","TMS":"TMS 18","Statut":"Fermees ou refus OTT","Latitude":"47.2173338","Longitude":"2.1000478","Type":"Pharmacie"},{"Name":"Résidence du Bois de la Roche","Address":"31 Rue de Courtalain, 28220 Cloyes-les-Trois-Rivières, France","Phone":"0237985111","ATT":"Mélanie Chevé","TMS":"TMS 28","Statut":"Fermees ou refus OTT","Latitude":"48.0024886","Longitude":"1.2237774","Type":"ESMS"},{"Name":"KORIAN PARC DE MOUGINS","Address":"1083 AVENUE DE LA BORDE 6250 MOUGINS","Phone":"0493487148","ATT":"Alexandra Malartre","TMS":"TMS ESMS (cabinet virtuel)","Statut":"Fermees ou refus OTT","Latitude":"43.5754132","Longitude":"6.9722586","Type":"ESMS"},{"Name":"IDEL - BOURMONT","Address":"63 TER RUE FAUBOURG DE FRANCE 52150 BOURMONT-ENTRE-MEUSE-ET-MOUZON","Phone":"0786591553","ATT":"Aurelie HUGOT-JEANNARD","TMS":"TMS 10","Statut":"Fermees ou refus OTT","Latitude":"48.19873140000001","Longitude":"5.5858511","Type":"Cabinet Infirmier"},{"Name":"EHPAD TRICOCHE MAILLARD","Address":"9 AVENUE TRICOCHE MAILLARD 10160 AIX VILLEMAUR PALIS","Phone":"0325467144","ATT":"Aurelie HUGOT-JEANNARD","TMS":"TMS 10","Statut":"Fermees ou refus OTT","Latitude":"48.2259517","Longitude":"3.7285347","Type":"ESMS"},{"Name":"111-EHPAD EMEIS CLOS DES BENEDICTINS","Address":"6 ENCLOS DES BENEDICTINS 18000 BOURGES","Phone":"","ATT":"Cécile ABA'ANE","TMS":"TMS 18","Statut":"Fermees ou refus OTT","Latitude":"47.085914","Longitude":"2.3851894","Type":"ESMS"},{"Name":"SSIAD DE LIGNIÈRE","Address":"1 ROUTE D'ISSOUDUN 18160 LIGNIERES","Phone":"","ATT":"Cécile ABA'ANE","TMS":"TMS 18","Statut":"Fermees ou refus OTT","Latitude":"46.7530003","Longitude":"2.1729247","Type":"Cabinet Infirmier"},{"Name":"KORIAN RESIDENCE SANTEL","Address":"19 RÉSIDENCE CROIX SAINT SIMON 45502 GIEN CEDEX","Phone":"0238050000","ATT":"Cécile ABA'ANE","TMS":"TMS 18","Statut":"Fermees ou refus OTT","Latitude":"47.6900719","Longitude":"2.6403998","Type":"ESMS"},{"Name":"IDEL - AILLANT SUR THOLON","Address":"5BIS  RUE PIERRE MARIE CURIE 89400 MIGENNES","Phone":"","ATT":"Aurelie HUGOT-JEANNARD","TMS":"TMS 10","Statut":"Fermees ou refus OTT","Latitude":"47.9714359","Longitude":"3.5163942","Type":"Cabinet Infirmier"},{"Name":"KORIAN LES ANNABELLES","Address":"PARC GAMBETTA, 1 RUE DU DIAPASON, 69003, LYON","Phone":"0478602323","ATT":"Alexandra Malartre","TMS":"TMS ESMS (cabinet virtuel)","Statut":"Fermees ou refus OTT","Latitude":"45.75179139999999","Longitude":"4.8559179","Type":"ESMS"},{"Name":"INICEA CLINIQUE MAYLIS","Address":"31 Rue du Dr Noyer, 40180 Narrosse, France","Phone":"0558564141","ATT":"Blandine CHOPIN","TMS":"TMS 11","Statut":"Fermees ou refus OTT","Latitude":"43.7023964","Longitude":"-1.0049582","Type":"Clinique psy"},{"Name":"IDEL ARCIS SUR AUBE","Address":"77 RUE SAINT REMY 10700 ARCIS SUR AUBE","Phone":"0325378209","ATT":"Aurelie HUGOT-JEANNARD","TMS":"TMS 10","Statut":"Fermees ou refus OTT","Latitude":"48.531071","Longitude":"4.139535","Type":"CDS/MSP/CM"},{"Name":"CENTRE DE SANTÉ VILLENEUVE L'ARCHEVEQUE","Address":"2 PLACE DE LA LIBERTÉ 89190 VILLENEUVE L'ACHEVEQUE","Phone":"0386976290","ATT":"Aurelie HUGOT-JEANNARD","TMS":"TMS 10","Statut":"Fermees ou refus OTT","Latitude":"48.2340784","Longitude":"3.5569577","Type":"CDS/MSP/CM"},{"Name":"KORIAN LE HOME DU VERGER","Address":"Rue Georges Thébault, 85220 Apremont","Phone":"0251548957","ATT":"Alexandra Malartre","TMS":"TMS ESMS (cabinet virtuel)","Statut":"Fermees ou refus OTT","Latitude":"46.7484681","Longitude":"-1.7370951","Type":"ESMS"},{"Name":"KORIAN LES TEMPS BLEUS","Address":"8 Bis Rue de la Touche, Nogent-le-Rotrou, France","Phone":"0237535700","ATT":"Mélanie Chevé","TMS":"TMS 28","Statut":"Fermees ou refus OTT","Latitude":"48.313778","Longitude":"0.813257","Type":"ESMS"},{"Name":"KORIAN VILLA DU CHENE D'OR","Address":"50 Rue Charles de Gaulle, Bonchamp-lès-Laval, France","Phone":"0243915930","ATT":"Alexandra Malartre","TMS":"TMS ESMS (cabinet virtuel)","Statut":"Fermees ou refus OTT","Latitude":"48.0776585","Longitude":"-0.7075469","Type":"ESMS"},{"Name":"PHARMACIE CENTRALE OUAZIZ","Address":"62 RUE JEAN ROGER 34300 AGDE","Phone":"","ATT":"Blandine CHOPIN","TMS":"TMS 11","Statut":"Fermees ou refus OTT","Latitude":"43.3123943","Longitude":"3.4704242","Type":"Pharmacie"},{"Name":"KORIAN VILLA SAINT-ANTOINE","Address":"16 Bd Saint-Antoine, 78150 Le Chesnay-Rocquencourt","Phone":"0139233434","ATT":"Alexandra Malartre","TMS":"TMS ESMS (cabinet virtuel)","Statut":"Fermees ou refus OTT","Latitude":"48.8160369","Longitude":"2.1274409","Type":"ESMS"},{"Name":"KORIAN LA POMPIGNANE","Address":"662, AVENUE DE LA POMPIGNANE 34000 MONTPELLIER","Phone":"0467655024","ATT":"Blandine CHOPIN","TMS":"TMS 11","Statut":"Fermees ou refus OTT","Latitude":"43.6119119","Longitude":"3.899185","Type":"ESMS"},{"Name":"KORIAN LE BASTION","Address":"4 BOULEVARD DU COMMANDANT ROUMENS 11000 CARCASSONNE","Phone":"0468774848","ATT":"Blandine CHOPIN","TMS":"TMS 11","Statut":"Fermees ou refus OTT","Latitude":"43.2109","Longitude":"2.3543256","Type":"ESMS"},{"Name":"KORIAN LES CATALAUNES","Address":"6 Rue de l'Hôpital Militaire, Châlons-en-Champagne, France","Phone":"0351780400","ATT":"Aurelie HUGOT-JEANNARD","TMS":"TMS 10","Statut":"Fermees ou refus OTT","Latitude":"48.963944","Longitude":"4.378381","Type":"ESMS"},{"Name":"KORIAN LE SAINTIER","Address":"8 AVENUE PIERRE ET MARIE CURIE 45800 ST JEAN DE BRAYE","Phone":"0245405300","ATT":"Cécile ABA'ANE","TMS":"TMS 18","Statut":"Fermees ou refus OTT","Latitude":"47.9083123","Longitude":"1.9768748","Type":"ESMS"},{"Name":"KORIAN GRAND MAISON","Address":"14 ALLÉE DE RONCEVAUX  31 L'UNION","Phone":"0562890510","ATT":"Blandine CHOPIN","TMS":"TMS 31","Statut":"Fermees ou refus OTT","Latitude":"43.6531339","Longitude":"1.4789656","Type":"ESMS"},{"Name":"KORIAN LAURIERS DE PLAISANCE","Address":"104 Av. du Maréchal Foch, 93360 Neuilly-Plaisance, France","Phone":"0143015800","ATT":"Alexandra Malartre","TMS":"TMS ESMS (cabinet virtuel)","Statut":"Fermees ou refus OTT","Latitude":"48.85985849999999","Longitude":"2.5140897","Type":"ESMS"},{"Name":"KORIAN CHAINTREAUVILLE","Address":"1 bis Rue de Chaintréauville, 77140 Saint-Pierre-lès-Nemours, France","Phone":"0164283303","ATT":"Alexandra Malartre","TMS":"TMS ESMS (cabinet virtuel)","Statut":"Fermees ou refus OTT","Latitude":"48.2521421","Longitude":"2.6922949","Type":"ESMS"},{"Name":"KORIAN AGAPANTHE","Address":"1 Rue Georges Bizet, Poitiers, France","Phone":"0549381051","ATT":"Alexandra Malartre","TMS":"TMS ESMS (cabinet virtuel)","Statut":"Fermees ou refus OTT","Latitude":"46.563879","Longitude":"0.3646243","Type":"ESMS"},{"Name":"KORIAN COTEAUX DE L'YVETTE","Address":"1 Rue de la Guyonnerie, 91440 Bures-sur-Yvette, France","Phone":"0164539800","ATT":"Alexandra Malartre","TMS":"TMS ESMS (cabinet virtuel)","Statut":"Fermees ou refus OTT","Latitude":"48.7034112","Longitude":"2.1661239","Type":"ESMS"},{"Name":"KORIAN SAINT-CHARLES","Address":"99 RUE HOUDAN, 92330, SCEAUX","Phone":"0141133434","ATT":"Alexandra Malartre","TMS":"TMS ESMS (cabinet virtuel)","Statut":"Fermees ou refus OTT","Latitude":"48.778855","Longitude":"2.285782","Type":"ESMS"},{"Name":"EHPAD ASIMAT LA COLLINE","Address":"2 RUE DE L'HERMINETTE 10320 BOUILLY","Phone":"0325283047","ATT":"Aurelie HUGOT-JEANNARD","TMS":"TMS 10","Statut":"Fermees ou refus OTT","Latitude":"48.194464","Longitude":"3.994558","Type":"ESMS"},{"Name":"MSP VAL DE BLAISE À WASSY","Address":"8 RUE MARIE STUART,   WASSY, FRANCE","Phone":"","ATT":"Aurelie HUGOT-JEANNARD","TMS":"TMS 10","Statut":"Fermees ou refus OTT","Latitude":"48.4986622","Longitude":"4.9495171","Type":"CDS/MSP/CM"},{"Name":"EHPAD LE MORTIER D'OR","Address":"2 Bis Grande Rue, 10210 Chaource, France","Phone":"0325401476","ATT":"Aurelie HUGOT-JEANNARD","TMS":"TMS 10","Statut":"Fermees ou refus OTT","Latitude":"48.057775","Longitude":"4.137029","Type":"ESMS"},{"Name":"C15 (89) VÉHICULE DE TÉLÉMÉDECINE ASSISTÉE","Address":"Auxerre, France","Phone":"","ATT":"Aurelie HUGOT-JEANNARD","TMS":"TMS 10","Statut":"Fermees ou refus OTT","Latitude":"47.798202","Longitude":"3.573781","Type":"véhicule de télémédecine assitée"},{"Name":"CABINET IDEL CHEZAL BENOÎT","Address":"7 RUE BASSE 18160 CHEZAL BENOIT","Phone":"","ATT":"Cécile ABA'ANE","TMS":"TMS 18","Statut":"Fermees ou refus OTT","Latitude":"46.828684","Longitude":"2.11116","Type":"Cabinet Infirmier"},{"Name":"CABINET IDEL Les Aix d'Angillon - LEREDDE/LEBRE/BARBOUCHE","Address":"13 ROUTE DE BOURGES 18220 LES AIX D ANGILLON","Phone":"","ATT":"Cécile ABA'ANE","TMS":"TMS 18","Statut":"Fermees ou refus OTT","Latitude":"47.195198","Longitude":"2.565812","Type":"Cabinet Infirmier"},{"Name":"FAM-MAS PEP'S 18","Address":"« LES GRANDES TERRES » CHEMIN BLANC  18100 VIERZON","Phone":"0248754778","ATT":"Cécile ABA'ANE","TMS":"TMS 18","Statut":"Fermees ou refus OTT","Latitude":"47.20370200000001","Longitude":"2.068015","Type":"Foyer d'accueil"},{"Name":"IDEL VIRGINIE BROBBEL","Address":"54 AVENUE DU 14 JUILLET 18100 VIERZON","Phone":"","ATT":"Cécile ABA'ANE","TMS":"TMS 18","Statut":"Fermees ou refus OTT","Latitude":"47.21290990000001","Longitude":"2.0640143","Type":"Cabinet Infirmier"},{"Name":"MALLETTE IDEL NEUVY PAILLOUX","Address":"36100 NEUVY PAILLOUX","Phone":"","ATT":"Cécile ABA'ANE","TMS":"TMS 18","Statut":"Fermees ou refus OTT","Latitude":"46.8863879","Longitude":"1.858864","Type":"Cabinet Infirmier"},{"Name":"KORIAN CLOS DES VIGNES","Address":"Rue Maryse Bastié, Beaune, France","Phone":"0380246924","ATT":"Alexandra Malartre","TMS":"TMS ESMS (cabinet virtuel)","Statut":"Fermees ou refus OTT","Latitude":"47.0405496","Longitude":"4.8332221","Type":"ESMS"},{"Name":"KORIAN CHANTEFONTAINE","Address":"3 Chemin de la Chantefontaine, Cestas, France","Phone":"0556788438","ATT":"Alexandra Malartre","TMS":"TMS ESMS (cabinet virtuel)","Statut":"Fermees ou refus OTT","Latitude":"44.737616","Longitude":"-0.6791539999999999","Type":"ESMS"},{"Name":"KORIAN LA RIVIERE BLEUE","Address":"1 Rte de Roye, 80400 Ercheu","Phone":"0322871612","ATT":"Alexandra Malartre","TMS":"TMS ESMS (cabinet virtuel)","Statut":"Fermees ou refus OTT","Latitude":"49.7028139","Longitude":"2.9338582","Type":"ESMS"},{"Name":"KORIAN VILLA SAINT DO","Address":"125 AVENUE MARÉCHAL JUIN 76230 BOIS-GUILLAUME","Phone":"0235524700","ATT":"Pichard Jean-Baptiste","TMS":"TMS 14","Statut":"Fermees ou refus OTT","Latitude":"49.4647933","Longitude":"1.1169115","Type":"ESMS"},{"Name":"KORIAN CHATEAU DES LANDES","Address":"Ehpad Korian Château des Landes, 45240 La Ferté-Saint-Aubin, France","Phone":"0238766818","ATT":"Cécile ABA'ANE","TMS":"TMS 18","Statut":"Fermees ou refus OTT","Latitude":"47.6745489","Longitude":"1.9750275","Type":"ESMS"},{"Name":"KORIAN LES SAULES","Address":"11 Rue Henri de Toulouse Lautrec, 78280 Guyancourt","Phone":"0130642300","ATT":"Alexandra Malartre","TMS":"TMS ESMS (cabinet virtuel)","Statut":"Fermees ou refus OTT","Latitude":"48.7813178","Longitude":"2.0579357","Type":"ESMS"},{"Name":"PHARMACIE AGORA","Address":"3 AVENUE ETATS UNIS 52000 CHAUMONT","Phone":"0325035486","ATT":"Aurelie HUGOT-JEANNARD","TMS":"TMS 10","Statut":"Fermees ou refus OTT","Latitude":"48.1183541","Longitude":"5.1421111","Type":"Pharmacie"},{"Name":"CLINIQUE LA GAILLARDIÈRE (PSY) VIERZON","Address":"11  CHEMIN DE LA GAILLARDIÈRE 18100 VIERZON","Phone":"0248529333","ATT":"Cécile ABA'ANE","TMS":"TMS 18","Statut":"Fermees ou refus OTT","Latitude":"47.2263092","Longitude":"2.1109157","Type":"Clinique psy"},{"Name":"KORIAN BEL'SAONE","Address":"6 IMPASSE . SAINTE-CROIX 71100 CHALON-SUR-SAÔNE","Phone":"0385417700","ATT":"Aurelie HUGOT-JEANNARD","TMS":"TMS 10","Statut":"Fermees ou refus OTT","Latitude":"46.7870275","Longitude":"4.856158199999999","Type":"ESMS"},{"Name":"test arnaud","Address":"","Phone":"","ATT":"","TMS":"TMS 77","Statut":"test","Latitude":null,"Longitude":null,"Type":"Salle"}]}]